[{"lat":51.3152,"lng":37.8908,"address":"91501 Collier Walk","geohash":"uc4gyjxhxws7"},{"lat":55.8321,"lng":37.3479,"address":"6176 Miller Mall","geohash":"ucft9ggvt1u9"},{"lat":55.8975,"lng":37.4806,"address":"54154 Jakayla Cliffs","geohash":"ucftuzud930z"},{"lat":55.7513,"lng":37.9968,"address":"227 Kunde Route","geohash":"ucgj0thqveed"},{"lat":55.9018,"lng":36.8061,"address":"4651 Schmidt Squares","geohash":"ucfnj897s6c6"},{"lat":55.9949,"lng":37.188,"address":"3163 Wisozk Pass","geohash":"ucfqw1x3zjyt"},{"lat":55.81233437,"lng":38.97952719,"address":"53414 Palma Walk","geohash":"ucgtx0242v4n"},{"lat":55.9105,"lng":36.8861,"address":"487 Thora Lodge","geohash":"ucfnp65wk2te"},{"lat":55.9836,"lng":37.1543,"address":"25442 Tom Stream","geohash":"ucfqmrwbjgqn"},{"lat":46.0826,"lng":40.8704,"address":"36920 Katharina Inlet","geohash":"ubjn4j0ft770"},{"lat":47.7256,"lng":40.2464,"address":"492 Ernser Glens","geohash":"ubkxeb4tc0dv"},{"lat":56.7325,"lng":37.5469,"address":"78648 Nestor Way","geohash":"uf4dwruff0tb"},{"lat":56.3379,"lng":36.7248,"address":"972 Oren Flat","geohash":"uf40e8n0jcex"},{"lat":56.346,"lng":37.5188,"address":"8495 Eugenia Plaza","geohash":"uf48tc2r5rsy"},{"lat":56.1527,"lng":35.4914,"address":"965 Kohler Wall","geohash":"uccprwk11tcy"},{"lat":55.3269,"lng":36.7572,"address":"54937 Dessie Street","geohash":"ucf4srvy8cdy"},{"lat":56.0734,"lng":37.5568,"address":"0045 Reyes Drives","geohash":"ucfwyxu50z7g"},{"lat":56.0815,"lng":37.0481,"address":"007 Jeanne Valleys","geohash":"ucfr513d7m3d"},{"lat":54.91834462,"lng":37.41858948,"address":"54213 Koelpin Branch","geohash":"ucf87mx6s36w"},{"lat":55.76766138,"lng":38.41791037,"address":"663 Constance Mall","geohash":"ucgm60pn4jw4"},{"lat":44.8385,"lng":38.5633,"address":"398 Cayla Point","geohash":"szgrjd8gnn0w"},{"lat":43.4182,"lng":39.93,"address":"8983 Griffin Key","geohash":"szsrh8h1k7jg"},{"lat":55.6454,"lng":36.0342,"address":"526 Marcella Ways","geohash":"uccseczmcwqu"},{"lat":55.4609,"lng":36.0346,"address":"45894 Dooley Underpass","geohash":"ucceebre5j15"},{"lat":55.8239,"lng":37.2589,"address":"198 Torey Shoals","geohash":"ucfmxf7jg31q"},{"lat":56.326,"lng":36.7014,"address":"78955 Ebert Burg","geohash":"uf407jv4sx7m"},{"lat":56.1464,"lng":36.9161,"address":"60007 Simonis Avenue","geohash":"ucfr2j1krrx3"},{"lat":56.2829,"lng":37.4889,"address":"0761 Brock Groves","geohash":"uf48jjfxdtjb"},{"lat":55.9767,"lng":37.1605,"address":"5159 Considine Prairie","geohash":"ucfqmw5rymjj"},{"lat":55.3364,"lng":36.1605,"address":"86239 Imogene Locks","geohash":"uccdycembsx5"},{"lat":59.691,"lng":30.4302,"address":"269 Clifton Lodge","geohash":"udtes6qt70cs"},{"lat":56.2048,"lng":36.6342,"address":"301 Justus Turnpike","geohash":"ucfp9xu0wwp7"},{"lat":55.302,"lng":36.0941,"address":"64075 Bauch Mountains","geohash":"uccdt76vmrzx"},{"lat":55.5863,"lng":35.8817,"address":"032 Kassulke Way","geohash":"uccs0x0m8jqe"},{"lat":56.7246,"lng":37.5155,"address":"0524 Boehm Brooks","geohash":"uf4dtwmuwxb7"},{"lat":54.661412,"lng":39.636922,"address":"0547 Merritt Mill","geohash":"ucsnvyy9z1xp"},{"lat":55.6863,"lng":37.3098,"address":"28101 Mraz Coves","geohash":"ucfsc12hjqeq"},{"lat":47.1356,"lng":39.7635,"address":"3527 Travon Vista","geohash":"ubkk0ufbu8ww"},{"lat":55.3516,"lng":35.8124,"address":"8262 Alek Trace","geohash":"ucc6yumy3qhg"},{"lat":56.1726,"lng":40.4486,"address":"62502 Alia Mountains","geohash":"ucuz83vv0ew5"},{"lat":56.1256,"lng":40.3453,"address":"9968 Liam Canyon","geohash":"ucuxq16e3dhj"},{"lat":55.9707,"lng":37.1612,"address":"85763 Shields Cliff","geohash":"ucfqmt5uywxn"},{"lat":55.5239,"lng":37.5148,"address":"028 Virgil Plaza","geohash":"ucfevev6njnk"},{"lat":56.3829,"lng":36.9269,"address":"9359 Balistreri Green","geohash":"uf42b21q5nk7"},{"lat":56.2365,"lng":36.8277,"address":"63231 D'Amore Park","geohash":"ucfpyj917e7m"},{"lat":56.371,"lng":36.7825,"address":"04119 Donald Manor","geohash":"uf40tn00yk5c"},{"lat":56.7609,"lng":37.1324,"address":"4194 Sofia Mall","geohash":"uf46uvnbpwsj"},{"lat":56.3377,"lng":36.7603,"address":"152 Erling Grove","geohash":"uf40kxbnch6q"},{"lat":55.8893,"lng":36.864,"address":"092 Schuster Estate","geohash":"ucfjyy7dc2ws"},{"lat":55.969,"lng":37.1505,"address":"497 Yadira Causeway","geohash":"ucfqmku5j3u9"},{"lat":56.0126,"lng":37.3382,"address":"25640 Cummings Circles","geohash":"ucfw9suc517v"},{"lat":56.0741,"lng":35.9277,"address":"2658 Nathan Roads","geohash":"uccwcxcz21fg"},{"lat":55.8133,"lng":37.1095,"address":"0212 Parisian Mountains","geohash":"ucfms2w2410z"},{"lat":55.9152,"lng":36.793,"address":"67135 Cicero Squares","geohash":"ucfnj5pcehc2"},{"lat":55.8256,"lng":37.3145,"address":"179 Ritchie Drive","geohash":"ucft94exdy5g"},{"lat":55.8491,"lng":36.5042,"address":"648 Kuphal Points","geohash":"uccvwxj89db6"},{"lat":55.8439,"lng":38.1941,"address":"2822 Schiller Highway","geohash":"ucgjtnh4713p"},{"lat":56.1888,"lng":36.9764,"address":"963 Schuppe Green","geohash":"ucfr9kv7kx6p"},{"lat":55.716,"lng":37.3695,"address":"99894 Brenna Road","geohash":"ucfsfqg9hrnv"},{"lat":47.2294,"lng":39.6804,"address":"8516 Wisozk Brooks","geohash":"ubkhwvy7hq69"},{"lat":55.7828,"lng":37.0527,"address":"07723 Lizzie Prairie","geohash":"ucfm74uyq7xe"},{"lat":56.1196,"lng":40.371,"address":"425 Hudson Shoal","geohash":"ucuxq8m227xm"},{"lat":55.7774,"lng":37.9022,"address":"87454 Joan Track","geohash":"ucfvq3zwckbx"},{"lat":55.9187,"lng":37.4221,"address":"492 Vito Passage","geohash":"ucfw5e9yn1hn"},{"lat":55.7356,"lng":36.9327,"address":"1507 Jane Forges","geohash":"ucfm06me6kch"},{"lat":56.7256,"lng":37.6218,"address":"5474 Jalen Motorway","geohash":"uf4f8ne6e6r2"},{"lat":56.0171,"lng":37.4625,"address":"751 Jaiden Court","geohash":"ucfwsmx77829"},{"lat":55.8557,"lng":36.9315,"address":"540 Wiegand Gateway","geohash":"ucfmb2hxn34k"},{"lat":56.1115,"lng":37.0506,"address":"38685 Yost Squares","geohash":"ucfr5ng3jt9x"},{"lat":55.5409,"lng":37.0829,"address":"18353 Wuckert Row","geohash":"ucf7gyfvnnnm"},{"lat":55.6614,"lng":37.0914,"address":"663 Damaris Lane","geohash":"ucfkshc5hm02"},{"lat":55.6221,"lng":36.3408,"address":"325 Ruth Street","geohash":"uccu6vww4nbq"},{"lat":55.7526,"lng":37.1643,"address":"7294 Flo Dam","geohash":"ucfmjtqnqvyt"},{"lat":55.9264,"lng":35.9068,"address":"04265 Lowe Highway","geohash":"uccw1j4dchdd"},{"lat":56.1972,"lng":37.641,"address":"6085 Renner Bridge","geohash":"ucfz8w3k6v7g"},{"lat":56.7507,"lng":37.194,"address":"28162 Julie Summit","geohash":"uf46y75ug10x"},{"lat":56.0085,"lng":37.4859,"address":"96388 Noel Shores","geohash":"ucfwth03hv0u"},{"lat":55.5146,"lng":36.9782,"address":"6841 Dave Vista","geohash":"ucf7c6neyx82"},{"lat":55.6696,"lng":37.608,"address":"5754 Jeffry Lakes","geohash":"ucfsxy36cvt7"},{"lat":54.2128,"lng":37.6675,"address":"94306 Armstrong Crescent","geohash":"ucdu3jhskq7s"},{"lat":55.58975399,"lng":37.75053619,"address":"220 Polly Point","geohash":"ucfu5pc1g1pz"},{"lat":55.9596,"lng":37.3373,"address":"7146 Filomena Walk","geohash":"ucfw3ehhq1sb"},{"lat":55.801,"lng":37.9859,"address":"550 Ankunding Stravenue","geohash":"ucgj2qk2rs7f"},{"lat":56.1192,"lng":40.3572,"address":"6322 Beer Keys","geohash":"ucuxq25nncj7"},{"lat":55.7926,"lng":36.0937,"address":"46729 Verona Streets","geohash":"ucctmkdxknmq"},{"lat":55.8173,"lng":37.3339,"address":"53773 Ortiz Corners","geohash":"ucft991xqfve"},{"lat":55.9422,"lng":37.3181,"address":"588 Rick Rapids","geohash":"ucfw1pynyvbj"},{"lat":55.8725,"lng":37.404,"address":"288 Shemar Extension","geohash":"ucftg5kbbkgu"},{"lat":55.5316,"lng":35.608,"address":"317 Bahringer Fields","geohash":"ucc7fm0zn891"},{"lat":55.6799,"lng":37.266,"address":"3846 Klein Villages","geohash":"ucfsb00qbtxt"},{"lat":55.8392,"lng":38.1972,"address":"75959 Huel Knoll","geohash":"ucgjtjnqgm2d"},{"lat":55.7391,"lng":37.9808,"address":"8771 Kaylin Via","geohash":"ucgj06bzbc34"},{"lat":55.8736,"lng":37.3996,"address":"777 Watsica Manors","geohash":"ucftg53x3cgn"},{"lat":55.9147,"lng":36.8684,"address":"7612 Cristal Heights","geohash":"ucfnnfywxzx9"},{"lat":56.1262,"lng":36.8858,"address":"166 Schiller Spurs","geohash":"ucfpr37qv6jb"},{"lat":55.6769,"lng":37.6927,"address":"4340 Abagail Track","geohash":"ucfu9xwvrw6j"},{"lat":55.5396,"lng":36.0115,"address":"7484 Aufderhar Pike","geohash":"uccegqwv8gbd"},{"lat":55.9754,"lng":37.606,"address":"23583 Heidenreich Landing","geohash":"ucfwrwpb76cg"},{"lat":55.8941,"lng":37.4328,"address":"2559 Nienow Divide","geohash":"ucftgz1wxrqt"},{"lat":47.2184,"lng":38.9156,"address":"7278 Stiedemann Manors","geohash":"ub7stec7p5wx"},{"lat":55.8185,"lng":37.3686,"address":"0212 Lauryn Mission","geohash":"ucftd36yr6xd"},{"lat":56.1186,"lng":40.3521,"address":"89234 O'Kon Trail","geohash":"ucuxq0pd8168"},{"lat":56.021,"lng":35.9405,"address":"58823 Barrows Tunnel","geohash":"uccw9y71fr71"},{"lat":56.3187,"lng":36.7281,"address":"581 Lemke Green","geohash":"uf407u884y87"},{"lat":55.8262,"lng":37.9564,"address":"77056 Jacobi Knoll","geohash":"ucfvxdz50jzn"},{"lat":55.7403,"lng":37.9815,"address":"074 Isabel Trafficway","geohash":"ucgj071qc151"},{"lat":55.767661,"lng":37.679323,"address":"837 Sherwood Trafficway","geohash":"ucfv32jnpv7x"},{"lat":56.4491,"lng":37.3098,"address":"7111 Walker Fort","geohash":"uf491h0pv6gm"},{"lat":55.9392,"lng":37.5038,"address":"9310 Jean Street","geohash":"ucfwjrmmmysj"},{"lat":56.2276,"lng":35.6358,"address":"621 Braun Unions","geohash":"uccrfgvjw266"},{"lat":56.0337,"lng":35.5031,"address":"55334 Cole Forks","geohash":"uccnzbsefny0"},{"lat":53.6895,"lng":33.5027,"address":"9176 Gutmann Ramp","geohash":"u9xc6mguj2py"},{"lat":56.0131,"lng":37.2241,"address":"17222 Markus Trafficway","geohash":"ucfqxhcgbqss"},{"lat":56.0754,"lng":37.5503,"address":"6171 Aurelie Alley","geohash":"ucfxn2pqckjn"},{"lat":55.3339,"lng":36.7543,"address":"4387 Emard Heights","geohash":"ucf4u35xm686"},{"lat":55.5113,"lng":36.03,"address":"13250 Reese Heights","geohash":"uccegcs0zb74"},{"lat":55.7931,"lng":37.9598,"address":"3746 Maryjane Park","geohash":"ucfvruc6r7wm"},{"lat":55.601,"lng":36.4567,"address":"5871 Zieme Knoll","geohash":"uccum9fgq9tu"},{"lat":55.3789,"lng":35.8975,"address":"69655 Ratke Inlet","geohash":"ucce0c7v2rhn"},{"lat":56.2889,"lng":36.789,"address":"245 Celestine River","geohash":"uf40jphftg6x"},{"lat":55.8396,"lng":37.1338,"address":"6195 Johnny Greens","geohash":"ucfmtj210rbh"},{"lat":47.2868,"lng":39.6274,"address":"8486 Katheryn Junction","geohash":"ubkjj8rc967j"},{"lat":56.1167,"lng":40.3482,"address":"60260 Alessia Valley","geohash":"ucuxnpsxmpnd"},{"lat":55.66806,"lng":37.62142,"address":"73055 Amaya Harbors","geohash":"ucfu8n51fweb"},{"lat":55.6606,"lng":37.183,"address":"58269 Mireille Hollow","geohash":"ucfkwhey6xyk"},{"lat":55.8439,"lng":37.1954,"address":"0399 Wilkinson Cove","geohash":"ucfmwqhf79kr"},{"lat":55.7122,"lng":36.1754,"address":"8481 Lois Islands","geohash":"uccsznn55fv6"},{"lat":55.8246,"lng":37.3345,"address":"640 Schaden Camp","geohash":"ucft9dd1ugsy"},{"lat":55.9845,"lng":37.1564,"address":"7734 Addie Turnpike","geohash":"ucfqmx8mqg5y"},{"lat":56.0181,"lng":37.4321,"address":"74486 Reilly Dale","geohash":"ucfwevc1p4sy"},{"lat":55.9586,"lng":37.2924,"address":"55590 O'Kon Grove","geohash":"ucfw2dgqrzhg"},{"lat":55.8474,"lng":38.2007,"address":"728 Johnston Neck","geohash":"ucgjtq8ysvfm"},{"lat":55.9012,"lng":37.4516,"address":"005 Hessel Villages","geohash":"ucfwh0x2jdcn"},{"lat":55.8202,"lng":37.95,"address":"581 Schneider Springs","geohash":"ucfvx9f25p6z"},{"lat":55.9048,"lng":37.2579,"address":"9542 Queen Station","geohash":"ucfqpc4m5fpc"},{"lat":56.1165,"lng":47.7031,"address":"3294 VonRueden Landing","geohash":"v1czjx8q6cc3"},{"lat":55.8073,"lng":38.0555,"address":"1923 Ryan Run","geohash":"ucgj3zrjj6tr"},{"lat":55.8008,"lng":37.9779,"address":"439 Okuneva Mountain","geohash":"ucgj2nnxjpn9"},{"lat":55.685,"lng":37.3087,"address":"32891 Willa Street","geohash":"ucfsbcpkesr5"},{"lat":55.9799,"lng":37.1762,"address":"147 Barrows Mall","geohash":"ucfqmyyfs1xy"},{"lat":55.9849,"lng":36.4974,"address":"71535 Windler Turnpike","geohash":"uccyqx8xejcb"},{"lat":56.373,"lng":36.6821,"address":"9578 Jacobi Crest","geohash":"uf40dwrhdbu5"},{"lat":55.5483,"lng":42.1853,"address":"2569 Krajcik Summit","geohash":"ucvupbq2k9xs"},{"lat":55.542,"lng":42.1851,"address":"045 Adolph Port","geohash":"ucvgzzn7854r"},{"lat":55.5425,"lng":42.1956,"address":"14399 Ava Orchard","geohash":"ucy5bpjys8ry"},{"lat":56.2262,"lng":43.9477,"address":"187 Torphy Pike","geohash":"uczrb59trek5"},{"lat":56.2865,"lng":44.0517,"address":"3577 Hackett Turnpike","geohash":"ufp24qtkxh06"},{"lat":56.2234,"lng":43.8659,"address":"081 Mohr Extensions","geohash":"uczpy5njj93s"},{"lat":56.311,"lng":43.8864,"address":"4161 Jerrell Junctions","geohash":"ufp0qej575px"},{"lat":56.2891,"lng":43.9398,"address":"009 Darian Underpass","geohash":"ufp0pz5gz8c8"},{"lat":56.3214,"lng":44.0141,"address":"52563 Brenda Pines","geohash":"ufp23sfpfvgt"},{"lat":56.2346,"lng":43.9569,"address":"80637 Bogan Pine","geohash":"uczrbm0qq10r"},{"lat":56.2623,"lng":44.0195,"address":"45596 Hermann Extension","geohash":"ufp21dnp8syh"},{"lat":53.0149,"lng":32.4038,"address":"17300 Camden Brooks","geohash":"u9rj975dpm8s"},{"lat":55.8393,"lng":37.2548,"address":"41791 Aufderhar Divide","geohash":"ucfmxv0p7zbr"},{"lat":56.2187,"lng":43.8404,"address":"0753 Charlie View","geohash":"uczpvd79em78"},{"lat":56.281,"lng":43.9522,"address":"639 Theodore Streets","geohash":"ufp20jth86zd"},{"lat":55.849,"lng":37.1875,"address":"646 Ines Estate","geohash":"ucfmwpp0581v"},{"lat":46.4779,"lng":41.5374,"address":"80825 Dandre Rapids","geohash":"ubm83jn97sd2"},{"lat":55.8259,"lng":37.9604,"address":"200 Rollin Courts","geohash":"ucfvxfccmqjb"},{"lat":56.1388,"lng":40.3742,"address":"55375 Ernestina Lodge","geohash":"ucuxqez85ncd"},{"lat":56.1399,"lng":40.4054,"address":"5146 Emmerich River","geohash":"ucuxr7yqd5cg"},{"lat":56.4514,"lng":35.6076,"address":"152 Pfannerstill Groves","geohash":"uf134k8tjpwv"},{"lat":56.2291,"lng":35.6412,"address":"6831 Schmeler Islands","geohash":"uccrgh1nhpuy"},{"lat":55.9889,"lng":36.4631,"address":"75481 Sporer Stravenue","geohash":"uccyt8rwgz3v"},{"lat":56.3674,"lng":36.686,"address":"70383 Sporer Point","geohash":"uf40dv3gvubq"},{"lat":55.511,"lng":36.9767,"address":"52595 Schneider Village","geohash":"ucf7c3mx583v"},{"lat":55.7332,"lng":37.9683,"address":"9933 Emilia Vista","geohash":"ucfvpcztmt2r"},{"lat":55.5383,"lng":36.9899,"address":"219 Goodwin Port","geohash":"ucf7cwrnp1s8"},{"lat":56.3301,"lng":36.7205,"address":"393 Wiegand Turnpike","geohash":"uf407we49etr"},{"lat":55.9605,"lng":37.5341,"address":"4610 Cade Estates","geohash":"ucfwq573xcm3"},{"lat":55.4329,"lng":35.7498,"address":"0833 Weldon Cape","geohash":"ucc7me20n9wb"},{"lat":55.9508,"lng":37.2367,"address":"601 Thomas Mountains","geohash":"ucfqr3dcjcpf"},{"lat":55.9575,"lng":37.3047,"address":"6305 Scarlett Viaduct","geohash":"ucfw2fu2nd03"},{"lat":55.611,"lng":37.2875,"address":"80290 Blaze Isle","geohash":"ucfs27xvt9z0"},{"lat":55.7483,"lng":38.0335,"address":"641 Domenick Park","geohash":"ucgj1kxjku34"},{"lat":55.86791,"lng":37.622432,"address":"2897 Muhammad Dam","geohash":"ucfvb47y4jq8"},{"lat":56.2903,"lng":43.995,"address":"675 Payton Burg","geohash":"ufp21pk4vb3w"},{"lat":55.8457,"lng":37.4314,"address":"86292 Smitham Plaza","geohash":"ucftey2syc4b"},{"lat":55.6114,"lng":37.295,"address":"3552 Alejandra Shoals","geohash":"ucfs2etrukrd"},{"lat":55.8716,"lng":37.1061,"address":"17479 Goldner Islands","geohash":"ucfmu75gdv1s"},{"lat":47.7543,"lng":39.9188,"address":"1250 Welch Causeway","geohash":"ubkrsm7uzqwx"},{"lat":55.8078,"lng":37.8416,"address":"7408 Spinka Prairie","geohash":"ucfvmp7rvpyn"},{"lat":56.1402,"lng":40.4216,"address":"65641 Lenny Orchard","geohash":"ucuxru407ec9"},{"lat":55.9137,"lng":37.4146,"address":"09865 Brown Plaza","geohash":"ucfw56u2zm5u"},{"lat":55.9584,"lng":37.3348,"address":"98604 Armstrong Camp","geohash":"ucfw3dfm7cud"},{"lat":55.8383,"lng":37.1749,"address":"8705 Simonis Coves","geohash":"ucfmtvjctvw9"},{"lat":56.1479,"lng":37.0582,"address":"4016 Lind Plaza","geohash":"ucfr7m2vnxht"},{"lat":55.5154,"lng":36.9716,"address":"9587 Witting Bridge","geohash":"ucf7c63bssxh"},{"lat":52.9277,"lng":33.4561,"address":"31584 Kuhic Villages","geohash":"u9rv171ypwkk"},{"lat":56.213,"lng":36.9391,"address":"3867 Addie Glen","geohash":"ucfrb960rqtq"},{"lat":56.4482,"lng":36.5643,"address":"582 Axel Ville","geohash":"uf410h169gnj"},{"lat":55.566,"lng":36.993,"address":"100 Lillian View","geohash":"ucfk1g3rrmhj"},{"lat":55.3435,"lng":36.1838,"address":"8450 Schmidt Mills","geohash":"uccdz6upr8hu"},{"lat":55.9955,"lng":35.9328,"address":"585 Gusikowski View","geohash":"uccw99tmqvv8"},{"lat":55.8379,"lng":37.159,"address":"3112 Zackery Plaza","geohash":"ucfmtsfr76yx"},{"lat":55.5113,"lng":35.9624,"address":"9760 Axel Court","geohash":"uccef3e0b8m4"},{"lat":55.5057,"lng":36.0156,"address":"918 McDermott Manor","geohash":"ucceg89b0k3v"},{"lat":55.8428,"lng":37.2598,"address":"95164 Cartwright Avenue","geohash":"ucfmxvggbk2t"},{"lat":56.2906,"lng":43.9916,"address":"803 Alessandra Drive","geohash":"ufp21p3sw86k"},{"lat":56.7277,"lng":37.623,"address":"191 Liza Isle","geohash":"uf4f8nunz3wp"},{"lat":55.876319,"lng":37.545608,"address":"3615 Hellen Extension","geohash":"ucfty7gzhhf6"},{"lat":56.0911,"lng":37.6268,"address":"4000 Marks Streets","geohash":"ucfz05nfrfzs"},{"lat":55.7509,"lng":38.0048,"address":"693 Kirlin Summit","geohash":"ucgj0v4k810b"},{"lat":55.5098,"lng":36.9843,"address":"25393 Isaiah Stream","geohash":"ucf7c970h8sz"},{"lat":56.3362,"lng":43.8735,"address":"5014 Wolf Key","geohash":"ufp0qrewnsue"},{"lat":55.8201,"lng":37.7006,"address":"39365 Huel Port","geohash":"ucfv9csxxsuf"},{"lat":47.4452,"lng":40.1049,"address":"754 Leonel Wall","geohash":"ubktbt5krfkf"},{"lat":55.8123,"lng":37.7228,"address":"5345 Willa Ports","geohash":"ucfvd2kfhyy3"},{"lat":56.1059,"lng":40.3634,"address":"740 Shanahan Course","geohash":"ucuxnmz8x3u6"},{"lat":55.6803,"lng":37.8752,"address":"518 Tomas Creek","geohash":"ucfuvb7ck0hp"},{"lat":54.0353,"lng":38.2762,"address":"523 Thompson Forest","geohash":"uce5quzfkjgr"},{"lat":55.9029,"lng":37.3843,"address":"60279 Meagan Mall","geohash":"ucfw48y3vrf7"},{"lat":55.6941,"lng":37.9084,"address":"1739 Will Junctions","geohash":"ucfuydu19sxz"},{"lat":55.602,"lng":37.5287,"address":"5613 Miracle Crest","geohash":"ucfsmfp94h4c"},{"lat":56.3508,"lng":37.5326,"address":"1165 Deonte Flats","geohash":"uf48w467hyqz"},{"lat":55.7437,"lng":38.0071,"address":"489 Alysha Green","geohash":"ucgj0ggftdgf"},{"lat":55.5962,"lng":36.6932,"address":"594 MacGyver Drive","geohash":"ucfh6bzpmdbg"},{"lat":55.7974,"lng":37.9453,"address":"3935 Tony Landing","geohash":"ucfvrmwgmt4r"},{"lat":55.7505,"lng":37.9722,"address":"23074 Soledad Crossing","geohash":"ucgj0j4d0qkw"},{"lat":56.355,"lng":37.5288,"address":"902 Jaida Island","geohash":"uf48tgpesmmt"},{"lat":56.0357,"lng":37.237,"address":"232 Miller Ranch","geohash":"ucfqz2gpsgxd"},{"lat":59.4444,"lng":32.0249,"address":"9621 Bins Haven","geohash":"udwf0txbdr24"},{"lat":56.0266,"lng":36.8082,"address":"167 Bartoletti Cape","geohash":"ucfntx6ft5pp"},{"lat":55.6602,"lng":37.2169,"address":"30971 Toy Knolls","geohash":"ucfkwuss0tk1"},{"lat":55.6704,"lng":37.2602,"address":"70691 Kuhn Courts","geohash":"ucfkxykp9ddz"},{"lat":55.9945,"lng":37.3389,"address":"30540 Martine Ranch","geohash":"ucfw99mre7mg"},{"lat":55.7585,"lng":37.9232,"address":"603 Anastasia Street","geohash":"ucfvnywbf9g2"},{"lat":47.6862,"lng":40.267,"address":"366 Rippin Ferry","geohash":"ubkxk3181pgr"},{"lat":56.1048,"lng":40.3385,"address":"9538 Reichel Summit","geohash":"ucuxjvtd5hv8"},{"lat":55.9844,"lng":36.025,"address":"033 Prohaska Square","geohash":"uccw7z8sg2df"},{"lat":55.63,"lng":36.9951,"address":"594 Larissa Walk","geohash":"ucfk3z5h0r9g"},{"lat":56.3357,"lng":37.5426,"address":"9510 Jacobs Squares","geohash":"uf48qr9ejzxs"},{"lat":55.4979,"lng":36.0574,"address":"190 Royal Glen","geohash":"uccesx04wq6h"},{"lat":55.7989,"lng":37.9672,"address":"82591 Mikel Key","geohash":"ucfvrvyu5uu5"},{"lat":55.3935,"lng":36.765,"address":"120 Annabel Coves","geohash":"ucf5hs56w8ff"},{"lat":59.377411,"lng":28.228633,"address":"3324 Felicia Canyon","geohash":"uds1f376qzdm"},{"lat":55.8376,"lng":37.1843,"address":"87766 Schneider Station","geohash":"ucfmwhuv8gpd"},{"lat":55.8019,"lng":37.9276,"address":"2347 Heaney Shoal","geohash":"ucfvrn6j9hh7"},{"lat":56.7353,"lng":37.1592,"address":"72112 Schoen Grove","geohash":"uf46v86e047z"},{"lat":55.8344,"lng":37.6578,"address":"77484 Drew Trafficway","geohash":"ucfv8umdfqdc"},{"lat":55.76596098,"lng":38.67067946,"address":"1400 Jermain Forge","geohash":"ucgmpzzhk0sd"},{"lat":55.81620406,"lng":37.31534956,"address":"3684 Corbin Court","geohash":"ucft91h0ywt6"},{"lat":55.716935,"lng":38.215913,"address":"3324 Zola Lights","geohash":"ucghvwgyxm6p"},{"lat":55.84152876,"lng":38.40061712,"address":"85502 Stracke Locks","geohash":"ucgm9vdkrprq"},{"lat":54.58396645,"lng":39.79465548,"address":"74291 Connelly Drive","geohash":"ucsq989wdsvf"},{"lat":55.888922,"lng":38.450329,"address":"4273 Upton Mills","geohash":"ucgmfyq8td5m"},{"lat":55.56127088,"lng":38.04787945,"address":"395 Zboncak Mountains","geohash":"ucgh1f9egge4"},{"lat":55.00204235,"lng":39.08165703,"address":"23344 Tracy Pass","geohash":"ucgbckf6hegd"},{"lat":54.619745,"lng":39.772038,"address":"2682 Ullrich Manors","geohash":"ucsq9p1p5dky"},{"lat":46.0723,"lng":40.8677,"address":"7867 Prohaska Stravenue","geohash":"ubjn1gnyw7jy"},{"lat":56.1291,"lng":40.3931,"address":"77643 Georgianna Spur","geohash":"ucuxr1vreqw7"},{"lat":56.8293,"lng":35.8474,"address":"1183 Moen Lake","geohash":"uf17r9rq8vqg"},{"lat":54.97405853,"lng":39.0384635,"address":"9496 Lamont Fort","geohash":"ucgb8rdzn5k0"},{"lat":54.9291452,"lng":37.46310771,"address":"99739 Bobby Union","geohash":"ucf8krxc3wvf"},{"lat":55.44580731,"lng":38.49004411,"address":"04562 Goldner Oval","geohash":"ucg77vee5p95"},{"lat":54.76345607,"lng":38.89668282,"address":"72938 Steuber Road","geohash":"ucext17sq2hu"},{"lat":55.67257624,"lng":37.50793172,"address":"9545 Marie Corners","geohash":"ucfstwbkq0kv"},{"lat":55.42827554,"lng":38.54671942,"address":"458 Ledner Curve","geohash":"ucg7m4kv5emn"},{"lat":54.104231,"lng":37.583939,"address":"125 Fred Extension","geohash":"ucdez1rgcr8j"},{"lat":54.61740562,"lng":39.73099977,"address":"2254 Funk Keys","geohash":"ucsq8ng1rqke"},{"lat":56.3091,"lng":44.029,"address":"91353 Block Walks","geohash":"ufp23fubq11c"},{"lat":54.6243767,"lng":39.73417761,"address":"583 Claudie Road","geohash":"ucsqb0jd13y5"},{"lat":55.4330166,"lng":37.3682231,"address":"3838 Douglas Trace","geohash":"ucfe6768wxq8"},{"lat":55.8503424,"lng":38.59938477,"address":"88882 Thaddeus Inlet","geohash":"ucgmwr5pyf7m"},{"lat":55.83251114,"lng":38.27257647,"address":"9931 Kip Bridge","geohash":"ucgjwgvpzwmm"},{"lat":55.78527293,"lng":38.44540453,"address":"05270 Landen Springs","geohash":"ucgm6g7hfbe7"},{"lat":55.63025887,"lng":38.05609707,"address":"18485 Reilly Squares","geohash":"ucgh3zpterfs"},{"lat":55.55001,"lng":37.077352,"address":"6316 Ludie Falls","geohash":"ucfk58wfkbmm"},{"lat":55.5640825,"lng":38.23391797,"address":"9647 Gulgowski Run","geohash":"ucghn51h4zew"},{"lat":55.65867747,"lng":37.92838607,"address":"770 Olen Bypass","geohash":"ucfuxh6e73qr"},{"lat":48.1733,"lng":40.7844,"address":"3235 Katelynn Corner","geohash":"ubt401dmc3uz"},{"lat":55.79768939,"lng":38.88200101,"address":"352 Tressa Manors","geohash":"ucgtkv9j071q"},{"lat":56.1317,"lng":40.369,"address":"3385 Steuber Mills","geohash":"ucuxqd7ycgk1"},{"lat":55.5374,"lng":36.3845,"address":"8164 Jan Loop","geohash":"uccggyq2u39x"},{"lat":55.77700676,"lng":38.43678785,"address":"86110 Kaylin Islands","geohash":"ucgm69uud5dm"},{"lat":55.15560444,"lng":37.46625622,"address":"123 Hane Terrace","geohash":"ucf9u8f0ejck"},{"lat":55.43095693,"lng":37.49723861,"address":"60854 Becker Shores","geohash":"ucfem6bsszr9"},{"lat":55.806373,"lng":38.4368,"address":"572 Huel Street","geohash":"ucgm6xhzdmgm"},{"lat":55.88418546,"lng":38.7790046,"address":"640 Mayer Drive","geohash":"ucgtfmqhbr1x"},{"lat":55.5845737,"lng":38.20219521,"address":"477 Briana Track","geohash":"ucghjqcgxet3"},{"lat":55.469767,"lng":37.296342,"address":"03086 Hane Cliffs","geohash":"ucfe89yqgf02"},{"lat":55.50861934,"lng":37.56780308,"address":"00160 Walker Drive","geohash":"ucfeych11k8k"},{"lat":55.36981207,"lng":39.06147476,"address":"2808 Devin Wall","geohash":"ucgfbzg8w34d"},{"lat":55.51277838,"lng":37.5643438,"address":"03456 Waelchi Lodge","geohash":"ucfeycc92euv"},{"lat":55.36283328,"lng":37.51654525,"address":"2674 Aditya Plain","geohash":"ucfdvwqxyu5s"},{"lat":55.60165228,"lng":38.10515118,"address":"829 Lucious Underpass","geohash":"ucgh71gr47hp"},{"lat":55.81282826,"lng":39.00216407,"address":"4123 Dickinson Roads","geohash":"ucgtx82t2332"},{"lat":55.07690076,"lng":38.76223346,"address":"5086 Smith Mills","geohash":"ucg9643y1w2n"},{"lat":55.87606304,"lng":38.46904878,"address":"24969 Von Mountain","geohash":"ucgmg7um9v1g"},{"lat":55.60304758,"lng":37.35600286,"address":"77025 Bernhard Ranch","geohash":"ucfs641z1zqd"},{"lat":55.55267926,"lng":37.70827461,"address":"02122 Cruickshank Centers","geohash":"ucfu4143f3zr"},{"lat":55.79832811,"lng":38.97529563,"address":"509 Kemmer Falls","geohash":"ucgtqvuby4qb"},{"lat":56.1453,"lng":40.4178,"address":"5734 Ericka Avenue","geohash":"ucuxrszq5480"},{"lat":55.7932356,"lng":38.93022083,"address":"841 Tillman Mountains","geohash":"ucgtmuu55uuw"},{"lat":55.35867868,"lng":37.53238748,"address":"0248 Turcotte Meadows","geohash":"ucfdyjdr8j8t"},{"lat":56.733,"lng":37.1644,"address":"707 Kshlerin Cliff","geohash":"uf46txym9m9p"},{"lat":55.62636347,"lng":38.36684578,"address":"549 Kris Lodge","geohash":"ucgk3n3zh39x"},{"lat":55.774953,"lng":38.431284,"address":"6227 Eichmann Rapid","geohash":"ucgm698b9uf6"},{"lat":55.97780769,"lng":37.82082536,"address":"3372 Hermiston Springs","geohash":"ucfykwkq35em"},{"lat":55.50302458,"lng":37.55503874,"address":"94155 Lily Parkways","geohash":"ucfey848xcdw"},{"lat":55.635091,"lng":38.010127,"address":"582 Rosetta Meadows","geohash":"ucgh8bn1uhsu"},{"lat":54.950485,"lng":39.018172,"address":"4080 Freeman Knolls","geohash":"ucg8xgkjv2cg"},{"lat":55.40310214,"lng":37.5585111,"address":"8884 Satterfield Falls","geohash":"ucfentv62wz9"},{"lat":55.60706867,"lng":37.97867319,"address":"40050 Littel Loop","geohash":"ucgh24znxhzm"},{"lat":55.57821532,"lng":39.53484927,"address":"62335 Raynor Lake","geohash":"ucuh5tsqsf22"},{"lat":55.579302,"lng":37.907926,"address":"7285 Isabel Stream","geohash":"ucfuntgsysy6"},{"lat":55.5830208,"lng":37.89969152,"address":"08263 Parker Plaza","geohash":"ucfunqtdwf46"},{"lat":55.59670159,"lng":36.69303156,"address":"16294 Hegmann Island","geohash":"ucfh6cp43877"},{"lat":55.50571621,"lng":37.33318118,"address":"9293 Torrance Ramp","geohash":"ucfec890npmw"},{"lat":55.5361,"lng":37.5155,"address":"617 Feeney Ridges","geohash":"ucfevwjcnx2k"},{"lat":55.14692125,"lng":37.48784565,"address":"9824 Lauren Village","geohash":"ucf9tp1y455w"},{"lat":55.14568035,"lng":37.46066407,"address":"465 Baylee Falls","geohash":"ucf9sqynbezs"},{"lat":55.08279139,"lng":38.80126334,"address":"20763 Kuhn Ferry","geohash":"ucg96gw0wbwc"},{"lat":55.86358875,"lng":38.43982158,"address":"794 Jacobi Creek","geohash":"ucgmf9xhbz8r"},{"lat":55.4935376,"lng":37.55440364,"address":"40320 Hermann Inlet","geohash":"ucfeww63310y"},{"lat":56.1093,"lng":40.3564,"address":"567 Lehner Turnpike","geohash":"ucuxnq6sk78g"},{"lat":55.71772857,"lng":38.22709937,"address":"55115 Hilpert Shore","geohash":"ucghvzh57crm"},{"lat":55.57655908,"lng":38.24379026,"address":"668 Makayla River","geohash":"ucghnm2kbvsb"},{"lat":55.89046374,"lng":38.77887135,"address":"681 Kelsie Brook","geohash":"ucgtfqtct1w6"},{"lat":57.9307,"lng":59.9446,"address":"17299 Delores Mountain","geohash":"v669s1fqf3jq"},{"lat":61.3216,"lng":63.3157,"address":"4231 Hegmann Course","geohash":"v6vhbg304wzb"},{"lat":60.1193,"lng":64.7788,"address":"27797 Raphael Brooks","geohash":"v6wn406kr3y1"},{"lat":59.5929,"lng":65.9145,"address":"803 Grimes Circle","geohash":"v6wg5bt3z1tx"},{"lat":61.3089,"lng":63.3429,"address":"2207 Al Path","geohash":"v6vhc2uyhx39"},{"lat":57.9159,"lng":60.1074,"address":"5012 Wiza Mill","geohash":"v669rz2befmb"},{"lat":59.7087,"lng":30.7815,"address":"59558 Beier Rapids","geohash":"udtgsmwkkumv"},{"lat":45.0989,"lng":43.4151,"address":"6456 Katlyn Keys","geohash":"ubnbefjbjhkc"},{"lat":45.1079,"lng":43.4039,"address":"59891 Austyn Camp","geohash":"ubnbeetu84j8"},{"lat":44.7792,"lng":44.1599,"address":"150 Gibson Pike","geohash":"szzqszu38rbh"},{"lat":44.7479,"lng":44.9754,"address":"19975 Rohan Knoll","geohash":"szzyx6n56v0u"},{"lat":55.26915108,"lng":38.74673422,"address":"7731 Dooley Estate","geohash":"ucgd3tqw0ke0"},{"lat":55.31614663,"lng":38.64793437,"address":"4395 Joan Fords","geohash":"ucg6xmyxfjhe"},{"lat":54.82889905,"lng":37.63406316,"address":"7185 Geovany Forks","geohash":"ucdzbmk33px6"},{"lat":54.647656,"lng":39.647495,"address":"2997 McLaughlin Via","geohash":"ucsnyhq3tt6v"},{"lat":55.47556209,"lng":37.30673041,"address":"637 McDermott Viaduct","geohash":"ucfe8gjbtf63"},{"lat":55.08959566,"lng":38.75861515,"address":"77329 Kade Mill","geohash":"ucg93uz0jhyn"},{"lat":55.58175046,"lng":39.52966848,"address":"6950 Fisher Branch","geohash":"ucuh5w2ehj30"},{"lat":54.60657686,"lng":39.79365991,"address":"1773 Johnston Hollow","geohash":"ucsq9sbf77xr"},{"lat":54.565321,"lng":36.242782,"address":"989 Daugherty Viaduct","geohash":"uc9y2tr4n10f"},{"lat":55.09819381,"lng":38.77984895,"address":"328 Hilpert Lakes","geohash":"ucg96qqd5zz0"},{"lat":56.174,"lng":40.4826,"address":"2389 Agustina Parks","geohash":"ucuz94nt2bw6"},{"lat":54.6023,"lng":39.8145,"address":"1143 Madilyn Streets","geohash":"ucsqdh013n6y"},{"lat":54.94053039,"lng":37.40007772,"address":"2877 Melody Ridges","geohash":"ucf8e19gucpj"},{"lat":55.60490303,"lng":38.1009613,"address":"80946 Adaline Ville","geohash":"ucgh748609py"},{"lat":56.3334,"lng":43.8761,"address":"89581 Anna Roads","geohash":"ufp0qrjtg4zk"},{"lat":54.95275231,"lng":39.0180003,"address":"98262 Madison Groves","geohash":"ucg8xgu4cr98"},{"lat":55.65890511,"lng":39.8855077,"address":"80558 Windler Glens","geohash":"ucukes7sxeyj"},{"lat":55.579113,"lng":38.914398,"address":"627 Cullen Key","geohash":"ucgsjtbeg1w7"},{"lat":54.82932258,"lng":38.15076873,"address":"379 Hassie Passage","geohash":"ucepujkecqe1"},{"lat":55.66141166,"lng":37.9500654,"address":"5222 Demetrius Villages","geohash":"ucfuxsf7hx5v"},{"lat":55.6079476,"lng":38.06799889,"address":"414 McCullough Squares","geohash":"ucgh6707b8v2"},{"lat":55.08306,"lng":38.762367,"address":"496 Watsica Shores","geohash":"ucg9659fhdee"},{"lat":55.770188,"lng":38.438767,"address":"1633 Santa Village","geohash":"ucgm68wkbhw1"},{"lat":55.81949448,"lng":38.99831978,"address":"298 Consuelo Row","geohash":"ucgtx3tsneyy"},{"lat":55.50813192,"lng":36.98429691,"address":"39621 Mariane Divide","geohash":"ucf7c8gnk9f8"},{"lat":55.622797,"lng":38.000327,"address":"698 Fadel Mill","geohash":"ucgh2tyfrbcs"},{"lat":54.92492207,"lng":37.40204219,"address":"0336 Bette Bridge","geohash":"ucf87ng2fg84"},{"lat":55.5444593,"lng":38.30856391,"address":"4686 Muller Mountains","geohash":"ucg5zxx3yjxt"},{"lat":55.08647423,"lng":38.76949775,"address":"009 Vinnie Points","geohash":"ucg96hpjfz0f"},{"lat":54.642608,"lng":39.662866,"address":"647 Quigley Manor","geohash":"ucsnye3s7b2m"},{"lat":56.172,"lng":40.4692,"address":"6601 Pollich Terrace","geohash":"ucuz8cuc8ewx"},{"lat":55.80138065,"lng":38.99571111,"address":"4049 Kathleen Dam","geohash":"ucgtrq7f9gm9"},{"lat":55.82446739,"lng":39.00752919,"address":"27227 Bruen Ridges","geohash":"ucgtxds3j6cz"},{"lat":48.3201,"lng":40.2707,"address":"371 Rath Forks","geohash":"ubsdukkhzr6r"},{"lat":55.8723,"lng":37.6496,"address":"80618 Ratke Court","geohash":"ucfvbepxer8e"},{"lat":56.2665,"lng":43.8934,"address":"3012 Jules Crossing","geohash":"ufp0ng40n7g4"},{"lat":55.8191,"lng":37.7151,"address":"8153 Porter Fort","geohash":"ucfvd1x3cd2v"},{"lat":55.26922568,"lng":37.89529031,"address":"0766 Hallie Avenue","geohash":"ucffqm6w862m"},{"lat":54.93664742,"lng":37.44299587,"address":"1731 Elena Green","geohash":"ucf8s0cjjj36"},{"lat":55.74756808,"lng":38.85026371,"address":"40706 Valentine Port","geohash":"ucgthh9chgbk"},{"lat":55.87680574,"lng":38.95724041,"address":"01836 Lind Radial","geohash":"ucgtykpccrxc"},{"lat":55.59811378,"lng":38.08546989,"address":"56837 Stoltenberg Mission","geohash":"ucgh69kfrz8e"},{"lat":55.645094,"lng":38.0067895,"address":"010 Nikolas Garden","geohash":"ucgh8cgsnmk7"},{"lat":55.07440158,"lng":38.75961436,"address":"4795 Upton Landing","geohash":"ucg93czzskx4"},{"lat":55.80657022,"lng":38.47106164,"address":"72361 Connelly Via","geohash":"ucgm7rmbbdww"},{"lat":55.27354806,"lng":37.83270135,"address":"42714 Lindsey Track","geohash":"ucffkyhzvb4v"},{"lat":55.57215639,"lng":38.24484878,"address":"074 Fahey Pines","geohash":"ucghnk9538f1"},{"lat":54.95083158,"lng":39.02897514,"address":"97924 Hailie Ford","geohash":"ucgb85kpc13n"},{"lat":55.601578,"lng":38.098518,"address":"3479 O'Conner Park","geohash":"ucgh6cyqxv6h"},{"lat":55.35988661,"lng":37.53996307,"address":"93756 Rice Parks","geohash":"ucfdyjzy8wc6"},{"lat":56.8284,"lng":60.6316,"address":"8230 Mafalda Common","geohash":"v65579q96ttf"},{"lat":55.81187327,"lng":38.97428,"address":"01397 Mayer Ports","geohash":"ucgtwbhpwx38"},{"lat":55.81984014,"lng":38.97036723,"address":"58197 Okuneva Highway","geohash":"ucgtwc9q5k7u"},{"lat":56.1681,"lng":40.4526,"address":"9039 Madge Mews","geohash":"ucuz890dvusz"},{"lat":54.516704,"lng":36.265051,"address":"0453 Beaulah Plaza","geohash":"uc9y1hrqufjy"},{"lat":56.297,"lng":44.0373,"address":"85209 Schulist Course","geohash":"ufp260dcz3qv"},{"lat":54.51300128,"lng":36.25253125,"address":"479 Runolfsdottir Greens","geohash":"uc9y0gy31pyx"},{"lat":54.614192,"lng":39.811206,"address":"4303 Zulauf Light","geohash":"ucsq9yjwsr6c"},{"lat":54.94070716,"lng":39.34253507,"address":"9004 Leffler Green","geohash":"ucgbx38kgd07"},{"lat":55.50189923,"lng":37.94930373,"address":"506 Cindy Flat","geohash":"ucfgxxccfzgv"},{"lat":46.402044,"lng":48.085497,"address":"98203 Pedro Vista","geohash":"v04pypnz3rcq"},{"lat":55.25063106,"lng":38.75727883,"address":"1597 Clara Square","geohash":"ucgd3fn4q01s"},{"lat":55.31997946,"lng":38.66798619,"address":"9512 Gislason Park","geohash":"ucg6xytnjrs7"},{"lat":55.60545217,"lng":38.86853026,"address":"3255 Gerhold Rue","geohash":"ucgsk6xjnrsf"},{"lat":55.63768772,"lng":37.84412009,"address":"456 Pearline Spur","geohash":"ucfut0t1pbtn"},{"lat":55.60903789,"lng":38.07591593,"address":"34485 Ethyl Trail","geohash":"ucgh67q41hh8"},{"lat":55.72029604,"lng":38.95529569,"address":"60926 Moen Turnpike","geohash":"ucgsyrw6k0jb"},{"lat":54.94967,"lng":39.017678,"address":"6773 Lorna Stravenue","geohash":"ucg8xg7c1bcm"},{"lat":54.98223508,"lng":39.03972683,"address":"5874 Rath Path","geohash":"ucgbb35yex6p"},{"lat":55.57522,"lng":37.911268,"address":"720 Kihn Lane","geohash":"ucfuntnjhefk"},{"lat":54.85549893,"lng":38.52520384,"address":"2347 Nakia Forges","geohash":"ucg2hdjhqq4j"},{"lat":46.356097,"lng":48.058612,"address":"126 Kiley Pines","geohash":"v04ptwg5yff3"},{"lat":54.86407611,"lng":37.21476663,"address":"5519 Olson Island","geohash":"ucf2ngdyqvj3"},{"lat":55.3189666,"lng":39.19370216,"address":"845 Bosco Wells","geohash":"ucgfeyebr6y9"},{"lat":55.62465165,"lng":37.85310009,"address":"16782 Maia Tunnel","geohash":"ucfumq5v14t5"},{"lat":56.1358,"lng":40.3601,"address":"75767 Rachel Turnpike","geohash":"ucuxq7jqdrxf"},{"lat":55.66689844,"lng":39.84900249,"address":"5731 Jenkins Cliff","geohash":"ucukdvc5jjcz"},{"lat":56.2296,"lng":43.8774,"address":"225 Felton Villages","geohash":"uczpykq91t0v"},{"lat":55.770456,"lng":38.445496,"address":"71430 Mohammad Street","geohash":"ucgm6benkyx8"},{"lat":55.095583,"lng":38.76184,"address":"03968 Powlowski Fields","geohash":"ucg96jce034f"},{"lat":55.061477,"lng":38.850079,"address":"283 Metz Ridge","geohash":"ucg9hp9u27q8"},{"lat":53.250794,"lng":34.453242,"address":"120 Stamm Park","geohash":"uc2wbn006erp"},{"lat":55.87934842,"lng":38.42841657,"address":"733 Cummings Locks","geohash":"ucgmfkw8z181"},{"lat":55.79463437,"lng":38.45981495,"address":"07292 Miller Summit","geohash":"ucgm7jje69sw"},{"lat":55.61119363,"lng":38.10529071,"address":"604 Kunze Crossroad","geohash":"ucgh75eqttu5"},{"lat":55.50877994,"lng":37.56123399,"address":"1397 Aglae Club","geohash":"ucfey9p604w4"},{"lat":55.45501947,"lng":38.44216291,"address":"9546 Corene Pass","geohash":"ucg76z28zkfk"},{"lat":55.9787,"lng":37.7466,"address":"27749 Brionna Centers","geohash":"ucfy6yw5xd0b"},{"lat":55.08074255,"lng":38.80909936,"address":"0297 Wunsch Manors","geohash":"ucg9755utd9g"},{"lat":55.060049,"lng":38.740961,"address":"56958 Athena Hill","geohash":"ucg91x6k1c43"},{"lat":55.77994718,"lng":38.66210999,"address":"93723 Golda Pike","geohash":"ucgmrf2vsry9"},{"lat":55.38351971,"lng":39.03473709,"address":"5911 Buckridge Street","geohash":"ucgg0620rk3e"},{"lat":47.7765,"lng":40.1464,"address":"856 Raynor Trail","geohash":"ubkxc93wqcje"},{"lat":54.8536554,"lng":38.55886828,"address":"2056 Murazik Vista","geohash":"ucg2j3v9wy80"},{"lat":56.2853,"lng":44.0694,"address":"2720 Jettie Spring","geohash":"ufp24y6mekqk"},{"lat":55.45031383,"lng":37.74390721,"address":"6729 Marshall Greens","geohash":"ucfg6ykm2z9n"},{"lat":56.1711,"lng":40.4619,"address":"284 Muller Coves","geohash":"ucuz89xkqegr"},{"lat":55.11594417,"lng":37.95111039,"address":"969 Vella Rapid","geohash":"ucfcx9e1suwv"},{"lat":54.623446,"lng":39.757791,"address":"8224 Pollich Camp","geohash":"ucsq8xysxsme"},{"lat":55.61194729,"lng":37.97684022,"address":"3634 Jules Fork","geohash":"ucgh25vghd2e"},{"lat":54.60706995,"lng":39.70382139,"address":"7882 Marta Mission","geohash":"ucsnxkzmnpdu"},{"lat":54.626943,"lng":39.763962,"address":"483 Cartwright Oval","geohash":"ucsqbbe1p2pp"},{"lat":55.604783,"lng":38.089008,"address":"43908 Torphy Avenue","geohash":"ucgh6dx964yf"},{"lat":54.18446993,"lng":37.56796041,"address":"20851 Nitzsche Keys","geohash":"ucdsnzupkvm9"},{"lat":55.57911942,"lng":38.21695662,"address":"6464 Gusikowski Forges","geohash":"ucghjtuezdu3"},{"lat":54.605151,"lng":39.668812,"address":"661 Rodriguez Cliff","geohash":"ucsnwstfn3fj"},{"lat":55.80871912,"lng":38.9591688,"address":"522 Ashly Orchard","geohash":"ucgtqx9jq7mc"},{"lat":55.10770757,"lng":38.7358531,"address":"90946 Walter Fields","geohash":"ucg992n9dv38"},{"lat":55.83585614,"lng":38.26077374,"address":"04405 Devyn Union","geohash":"ucgjwssektux"},{"lat":55.8471,"lng":37.5687,"address":"4656 Daryl Ramp","geohash":"ucftwyssyjvp"},{"lat":55.71805523,"lng":38.22990404,"address":"47182 Larissa Lake","geohash":"ucghvznjjq69"},{"lat":54.569619,"lng":36.308098,"address":"004 Abshire Pass","geohash":"uc9y6nng0420"},{"lat":54.603159,"lng":39.717636,"address":"985 Smith Terrace","geohash":"ucsnxu1qryxf"},{"lat":55.57934648,"lng":38.21384022,"address":"02799 Franz Avenue","geohash":"ucghjtfmpj0e"},{"lat":56.1724,"lng":40.4591,"address":"268 Afton Square","geohash":"ucuz89v7vq79"},{"lat":55.43192644,"lng":37.27309656,"address":"061 Jenkins Stravenue","geohash":"ucfe25j6qh51"},{"lat":55.63346063,"lng":38.05029595,"address":"8733 Abshire Stream","geohash":"ucgh3zg2khtp"},{"lat":55.36361936,"lng":37.51103547,"address":"884 Fritsch Plaza","geohash":"ucfdvwdsqqxm"},{"lat":54.71323102,"lng":38.47742173,"address":"1496 Presley Radial","geohash":"ucer784rsvmp"},{"lat":55.805199,"lng":38.180547,"address":"922 Crona Views","geohash":"ucgjkz40z5p6"},{"lat":55.7219,"lng":37.6242,"address":"2617 Frederick Haven","geohash":"ucfubpv5e7hb"},{"lat":55.42754503,"lng":39.19286847,"address":"50802 Aleen Motorway","geohash":"ucgg7f72u52c"},{"lat":55.85062949,"lng":38.43437648,"address":"47718 Funk Courts","geohash":"ucgmdx713zuq"},{"lat":55.88919696,"lng":37.35878325,"address":"6772 Nora Knoll","geohash":"ucftfn7f4try"},{"lat":55.59148193,"lng":38.49514591,"address":"629 Mueller River","geohash":"ucgk7bp7cgm4"},{"lat":55.69771615,"lng":38.95550216,"address":"48434 Kub Mount","geohash":"ucgsy7qw8yzd"},{"lat":55.85802244,"lng":38.45333855,"address":"747 Lindgren Turnpike","geohash":"ucgmg08uedp6"},{"lat":54.83665847,"lng":37.61202452,"address":"8893 Heaney Spurs","geohash":"ucdxzysnxwn1"},{"lat":54.97114522,"lng":39.03707301,"address":"00933 Reta Springs","geohash":"ucgb8r1yjspq"},{"lat":55.62668746,"lng":37.83864332,"address":"03521 Lockman Valleys","geohash":"ucfumn92bq17"},{"lat":47.2318,"lng":39.6904,"address":"13863 Pasquale Hollow","geohash":"ubkhxnm9jmem"},{"lat":55.32297417,"lng":38.70745051,"address":"0963 Anabelle Mountain","geohash":"ucgd8z1zsvz5"},{"lat":55.60629893,"lng":38.86194571,"address":"7137 Bruen Stream","geohash":"ucgsk6f6hvqv"},{"lat":55.46962923,"lng":37.56784457,"address":"8553 Madie Court","geohash":"ucfewcun40r5"},{"lat":55.06918476,"lng":38.8568549,"address":"47906 Casper Run","geohash":"ucg9k1n9q254"},{"lat":56.1289,"lng":40.3606,"address":"9851 Abigale Pines","geohash":"ucuxq3vww1kd"},{"lat":55.45826838,"lng":38.44159692,"address":"5615 Elvis Oval","geohash":"ucg76zb7f4s0"},{"lat":55.49854891,"lng":38.64376873,"address":"2633 Lockman Park","geohash":"ucg7xr5w3p67"},{"lat":54.85198809,"lng":38.23737376,"address":"5933 Hegmann Bypass","geohash":"ucg0n17xgrsq"},{"lat":55.17658174,"lng":39.27507515,"address":"159 Vaughn Unions","geohash":"ucgcvsx4zs6d"},{"lat":55.39767921,"lng":39.07854956,"address":"6329 Deckow Islands","geohash":"ucgg1kb4u5ys"},{"lat":55.31415884,"lng":37.81076291,"address":"9152 Foster Land","geohash":"ucffsmsuqds6"},{"lat":55.59574664,"lng":37.11459009,"address":"5939 Bogisich Path","geohash":"ucfkk8fh8wk4"},{"lat":55.86947296,"lng":38.43032523,"address":"9612 White Neck","geohash":"ucgmfd8p72x7"},{"lat":55.41472722,"lng":38.65988844,"address":"435 Ona Pine","geohash":"ucg7pxzq0ty5"},{"lat":55.59235145,"lng":37.36420281,"address":"9272 Lenny Underpass","geohash":"ucfs60rbcj2v"},{"lat":56.2292,"lng":43.9471,"address":"060 Ward Crest","geohash":"uczrbh1qcdsg"},{"lat":55.57650561,"lng":39.54683296,"address":"02864 Cartwright Pike","geohash":"ucuh5vmhegxc"},{"lat":55.1284337,"lng":37.45047844,"address":"1764 Anissa Squares","geohash":"ucf9s5yd7kus"},{"lat":47.2361,"lng":39.8105,"address":"029 Gisselle Drive","geohash":"ubkk9zj45zk2"},{"lat":54.49499653,"lng":36.1586148,"address":"48269 Beverly Stream","geohash":"uc9wnb9bkg9k"},{"lat":55.43817173,"lng":38.58085371,"address":"264 Mia Heights","geohash":"ucg7mujwz01x"},{"lat":55.29985949,"lng":39.08544073,"address":"5792 Alexandre Terrace","geohash":"ucgf97j1hbbz"},{"lat":55.75411302,"lng":38.7066565,"address":"6218 Tremblay Path","geohash":"ucgt0v9r4ryy"},{"lat":54.90409455,"lng":37.36659238,"address":"213 Thompson Alley","geohash":"ucf866cx89n9"},{"lat":56.1703,"lng":40.4793,"address":"21323 Kacey Unions","geohash":"ucuz91kpsncf"},{"lat":55.81124627,"lng":38.08835103,"address":"2167 Bret Shoals","geohash":"ucgjd8ph4fku"},{"lat":55.85257568,"lng":38.44486463,"address":"6820 Brice Key","geohash":"ucgmdzdsy68z"},{"lat":55.74473011,"lng":38.61065878,"address":"8480 Claudia Stream","geohash":"ucgmns52tdcg"},{"lat":54.93287867,"lng":37.44987907,"address":"22508 Yolanda Road","geohash":"ucf8s0npjqvc"},{"lat":55.56187544,"lng":37.83795504,"address":"025 Jacobs Brook","geohash":"ucfuj48z2k21"},{"lat":55.9306983,"lng":38.39233976,"address":"91107 Feest Loaf","geohash":"ucgq1tu7ymg7"},{"lat":55.74823272,"lng":38.93251032,"address":"996 Kathleen Glens","geohash":"ucgtjutucpzc"},{"lat":54.91549588,"lng":37.43444649,"address":"45399 Parker Mountain","geohash":"ucf87v4cvy6k"},{"lat":55.69228259,"lng":39.13870204,"address":"368 Modesto Square","geohash":"ucgufd7zjcgq"},{"lat":54.53342341,"lng":36.02077368,"address":"547 Ora Route","geohash":"uc9w5xt80ygt"},{"lat":56.2942,"lng":44.0617,"address":"91009 Hettinger Lodge","geohash":"ufp268hc2p2z"},{"lat":55.60261741,"lng":38.43703634,"address":"7202 Jamir Stream","geohash":"ucgk6dhuxz5s"},{"lat":55.58679853,"lng":38.50042297,"address":"707 Cummings Ferry","geohash":"ucgkhp70sfk1"},{"lat":55.30842336,"lng":37.14792443,"address":"89705 Anderson Shoal","geohash":"ucf6tkd6cmkh"},{"lat":55.77767847,"lng":38.69869865,"address":"5683 Orlando Drive","geohash":"ucgt2d5890ch"},{"lat":55.12886044,"lng":39.79375205,"address":"25171 Schuyler Meadow","geohash":"ucu39ebuvskn"},{"lat":54.93142579,"lng":39.13198451,"address":"612 Glover Pine","geohash":"ucgb6rzn9rfw"},{"lat":55.24891792,"lng":38.52763929,"address":"1045 Volkman Camp","geohash":"ucg6k9ybr0f0"},{"lat":59.4433,"lng":29.4797,"address":"27999 Kenton Freeway","geohash":"udsfnv66qf38"},{"lat":55.55604277,"lng":39.80076032,"address":"982 Vaughn Turnpike","geohash":"ucuk19wj2uvz"},{"lat":55.70969341,"lng":38.45544884,"address":"42592 Schumm Lodge","geohash":"ucgkgjdkkzsc"},{"lat":55.54487855,"lng":37.44541537,"address":"09122 Alexandra Greens","geohash":"ucfeupdum7v6"},{"lat":55.59396261,"lng":37.1077946,"address":"7593 Kennith Oval","geohash":"ucfkk2t463c0"},{"lat":55.95229167,"lng":38.5555274,"address":"62755 Ressie Place","geohash":"ucgqm3g38zhu"},{"lat":55.08116458,"lng":38.7604888,"address":"808 Lemke Squares","geohash":"ucg9650x0c71"},{"lat":55.52503874,"lng":37.44375093,"address":"51752 Stoltenberg Isle","geohash":"ucfeuh18y9km"},{"lat":56.7595,"lng":60.819,"address":"939 Jacobson Village","geohash":"v654zuz013tm"},{"lat":54.60015892,"lng":39.82614065,"address":"503 Schuster Square","geohash":"ucsqd78sbr6f"},{"lat":55.37033617,"lng":37.53241405,"address":"035 Weissnat Creek","geohash":"ucfdypf78du2"},{"lat":56.3238,"lng":43.8805,"address":"94254 Adah Meadows","geohash":"ufp0qt2vcv26"},{"lat":54.81963987,"lng":38.53451057,"address":"02217 Lance Cove","geohash":"ucerugegx1t9"},{"lat":54.80894705,"lng":32.02622904,"address":"8543 McLaughlin Orchard","geohash":"u9wzbc8v30r0"},{"lat":55.77167099,"lng":38.64332198,"address":"2895 Moen Springs","geohash":"ucgmr2gjw9j2"},{"lat":55.91216605,"lng":38.5117947,"address":"013 Weissnat Lights","geohash":"ucgqh67rvz5m"},{"lat":55.56206576,"lng":39.69719544,"address":"0605 Raynor Path","geohash":"ucuhp6f87xy2"},{"lat":55.41406609,"lng":37.54786291,"address":"21108 Krystel Vista","geohash":"ucfenrvd2deg"},{"lat":55.32771761,"lng":37.49220332,"address":"9485 Alana Plains","geohash":"ucfdv0hgrdj5"},{"lat":55.2329025,"lng":37.8656842,"address":"391 Paolo Brooks","geohash":"ucffjwufyrk9"},{"lat":59.4514,"lng":29.4965,"address":"87856 Wehner Path","geohash":"udsfpny9w20w"},{"lat":55.194156,"lng":38.36515683,"address":"551 Derrick Highway","geohash":"ucg3cpb9kbqm"},{"lat":53.30719823,"lng":34.28432398,"address":"8690 Corwin Tunnel","geohash":"uc2rk0m0ftuz"},{"lat":54.62998804,"lng":39.64797073,"address":"0343 Judd Place","geohash":"ucsny1nf8xvs"},{"lat":54.65653395,"lng":39.61108007,"address":"318 Mason Valley","geohash":"ucsnvmgvmh6h"},{"lat":53.2653279,"lng":34.3515046,"address":"47377 Horace Inlet","geohash":"uc2rj8wj00f3"},{"lat":53.30688331,"lng":34.30476526,"address":"321 Bayer Greens","geohash":"uc2rk85zngqc"},{"lat":55.02776176,"lng":38.09498276,"address":"2979 Avis Crossing","geohash":"ucg14c7zvqmb"},{"lat":55.08205051,"lng":38.77851289,"address":"713 Weissnat Canyon","geohash":"ucg967mshy6v"},{"lat":53.22759066,"lng":34.32322074,"address":"4658 Conroy Glens","geohash":"uc2qv1c3jn06"},{"lat":56.2683,"lng":43.926,"address":"696 D'Amore Brooks","geohash":"ufp0pe3ftgre"},{"lat":56.2889,"lng":43.9523,"address":"930 Tate Village","geohash":"ufp20pj4dg6r"},{"lat":54.65608055,"lng":39.65112557,"address":"47092 Joe View","geohash":"ucsnymc4dpyh"},{"lat":54.87141972,"lng":38.12092524,"address":"9186 Purdy Streets","geohash":"ucg05mnc1yn0"},{"lat":55.64542343,"lng":37.39000472,"address":"771 Kirstin Drive","geohash":"ucfsdcfw46b0"},{"lat":55.11479546,"lng":38.73647092,"address":"03534 Jeanette Canyon","geohash":"ucg993r4cnw1"},{"lat":55.64426834,"lng":37.52658386,"address":"7040 Trantow Mall","geohash":"ucfstcwp2g3j"},{"lat":55.83478061,"lng":37.3560395,"address":"8412 Halvorson Via","geohash":"ucftdh3v4v3z"},{"lat":55.83366225,"lng":37.45292164,"address":"11777 Larue Lake","geohash":"ucftsk0qsm42"},{"lat":55.64093234,"lng":37.6644734,"address":"725 Beatty Hill","geohash":"ucfu9147vvdc"},{"lat":54.59586556,"lng":39.70846723,"address":"735 Nicolas Motorway","geohash":"ucsnxdfgfqgp"},{"lat":55.75232939,"lng":38.65493921,"address":"8175 Zakary Cliff","geohash":"ucgmpt7sv77z"},{"lat":59.4374,"lng":29.4719,"address":"330 Jadon Bypass","geohash":"udsfnshzcn3m"},{"lat":55.54443183,"lng":37.52183788,"address":"577 Gene Locks","geohash":"ucfevzd9f0w1"},{"lat":55.53213487,"lng":37.5195477,"address":"8494 Hilll Shoal","geohash":"ucfevv2fhu4r"},{"lat":55.851583664,"lng":38.4405514330001,"address":"66678 Elisabeth Junctions","geohash":"ucgmdxrx1cb9"},{"lat":54.20585728,"lng":37.66720428,"address":"23448 Isabell Summit","geohash":"ucdu35ukj2pj"},{"lat":55.34271435,"lng":38.72180072,"address":"86121 Trever Common","geohash":"ucgdc4u6emeq"},{"lat":55.16920189,"lng":37.4313988,"address":"64121 D'Amore Streets","geohash":"ucf9gg0xyu9u"},{"lat":56.2909,"lng":43.949,"address":"551 Cecile Brook","geohash":"ufp20p6wmbmd"},{"lat":54.618846202,"lng":39.7348047990001,"address":"584 Berge Points","geohash":"ucsq8pn1b4cu"},{"lat":54.6151308280001,"lng":39.7508984630001,"address":"7776 Hane Fall","geohash":"ucsq8w3spn61"},{"lat":54.5159629280001,"lng":36.316487732,"address":"91804 Valerie Club","geohash":"uc9y4kkfe2pc"},{"lat":54.776467,"lng":32.022964,"address":"779 Blair Manor","geohash":"u9wz8ey2j1s9"},{"lat":54.4989277240001,"lng":36.28298369,"address":"616 Filomena Square","geohash":"uc9y19hrqb3x"},{"lat":53.2103627020001,"lng":34.4261706350001,"address":"33765 Sebastian Garden","geohash":"uc2qxqskgft3"},{"lat":54.605328,"lng":39.717223,"address":"88887 Strosin Track","geohash":"ucsnxu95n6gv"},{"lat":53.2724245740001,"lng":34.3446813410001,"address":"446 Allie Oval","geohash":"uc2rj9cn35dw"},{"lat":54.2036410050001,"lng":37.6992737400001,"address":"6429 McKenzie Neck","geohash":"ucdu3g7z0epc"},{"lat":55.506790847,"lng":38.769962084,"address":"6612 Deckow Lock","geohash":"ucgef0xqmxg0"},{"lat":55.4787017,"lng":39.660831,"address":"67250 Marianna Ways","geohash":"ucu5we84u7e4"},{"lat":54.8914277,"lng":38.60691258,"address":"0877 Quitzon Turnpike","geohash":"ucg2q88twrb8"},{"lat":53.26618719,"lng":34.3310393,"address":"16075 Gaylord Point","geohash":"uc2rj0z450yr"},{"lat":59.9284,"lng":32.3084,"address":"883 Murphy Brook","geohash":"udwuzjwk0r3n"},{"lat":54.8483703,"lng":37.48133319,"address":"686 Ofelia Islands","geohash":"ucf8hbv4fm79"},{"lat":54.853828,"lng":38.24980962,"address":"03395 Koss Groves","geohash":"ucg0n3udtntj"},{"lat":55.13307411,"lng":38.72482138,"address":"349 Vincenzo Stravenue","geohash":"ucg99hwt3tzt"},{"lat":54.61050396,"lng":39.68037047,"address":"004 Lola Station","geohash":"ucsnwvw35xu9"},{"lat":54.53184848,"lng":39.78388889,"address":"552 Witting Mountain","geohash":"ucsq1r1xpc3d"},{"lat":55.2441713,"lng":38.76276421,"address":"6412 Rowe Pike","geohash":"ucgd60fhtggy"},{"lat":52.6184,"lng":39.5819,"address":"61978 Kristoffer Forges","geohash":"uck5kdysmhey"},{"lat":61.3623,"lng":63.5646,"address":"68344 Emory Plains","geohash":"v6vjn6wm69c1"},{"lat":55.36214202,"lng":37.53218645,"address":"091 Patricia Island","geohash":"ucfdyn65g768"},{"lat":54.19076001,"lng":37.61945503,"address":"957 Stuart Forks","geohash":"ucdu211shcff"},{"lat":53.28079295,"lng":34.40105459,"address":"25949 Ashtyn Isle","geohash":"uc2rng6p4etq"},{"lat":55.53978804,"lng":37.15537708,"address":"7749 Bruen Landing","geohash":"ucf7vqxwxnch"},{"lat":55.7936,"lng":37.9724,"address":"27157 Jaskolski Valley","geohash":"ucgj2hftm0ce"},{"lat":55.9449,"lng":37.508,"address":"96529 Dibbert Junctions","geohash":"ucfwm82qxtpz"},{"lat":56.1185,"lng":38.4186,"address":"849 Kip Lodge","geohash":"ucgr60p9fq87"},{"lat":56.0237,"lng":37.4212,"address":"9656 Howell Fort","geohash":"ucfwewc39nt5"},{"lat":56.001,"lng":37.4865,"address":"846 Macy Loaf","geohash":"ucfwt48v6z03"},{"lat":54.7599707,"lng":32.10137333,"address":"82825 Fiona Mill","geohash":"u9wzd2xxbnqv"},{"lat":45.4476,"lng":41.963,"address":"7250 Genoveva Well","geohash":"ubjfdckx2y8w"},{"lat":55.75205735,"lng":38.73348749,"address":"2789 Sally Underpass","geohash":"ucgt1mkg78v8"},{"lat":54.60288826,"lng":39.82498299,"address":"053 Trantow Port","geohash":"ucsqdhpsvk5e"},{"lat":54.62950901,"lng":39.75873678,"address":"1611 Walter Hills","geohash":"ucsqb8zrvwwf"},{"lat":55.46400056,"lng":36.93905192,"address":"6191 Schinner Estates","geohash":"ucf788fjnr16"},{"lat":55.56459682,"lng":38.20112695,"address":"5441 Daniel Fort","geohash":"ucghj71pnz8f"},{"lat":59.9277,"lng":32.3231,"address":"08145 Devyn Vista","geohash":"udwuzt8bnufp"},{"lat":55.19482791,"lng":38.73999547,"address":"93276 Josianne Lakes","geohash":"ucg9cxct5mdm"},{"lat":54.92711621,"lng":37.40401311,"address":"6690 Watsica Roads","geohash":"ucf87phv8std"},{"lat":56.2897,"lng":43.8484,"address":"53264 Walton Crossing","geohash":"ufp0jz1rmb8g"},{"lat":47.8195,"lng":39.8874,"address":"3425 Hermiston Ways","geohash":"ubs259m0gbch"},{"lat":56.8544,"lng":60.6519,"address":"53301 Karlee Ranch","geohash":"v655knj2gsqd"},{"lat":56.8091,"lng":60.5948,"address":"44505 Herman Summit","geohash":"v6554vgbcpv9"},{"lat":56.8259,"lng":60.5867,"address":"30590 Prosacco Meadow","geohash":"v65568vfu7tc"},{"lat":56.8344,"lng":60.6768,"address":"450 Zander Rest","geohash":"v655kdrkruj3"},{"lat":56.7903,"lng":60.6172,"address":"2523 Kameron Dam","geohash":"v65556k57phr"},{"lat":56.8132,"lng":60.6303,"address":"7662 Maia Street","geohash":"v6555wt8ukh6"},{"lat":56.8327,"lng":60.6123,"address":"656 Beryl Squares","geohash":"v655760d2zns"},{"lat":56.7875,"lng":60.7828,"address":"229 Alfonzo Common","geohash":"v655p1uejvk8"},{"lat":56.8123,"lng":60.6216,"address":"004 Gibson Falls","geohash":"v6555qr79sm4"},{"lat":56.8083,"lng":60.6242,"address":"6708 Jose Shoal","geohash":"v6555t9hq4xv"},{"lat":56.8253,"lng":60.6323,"address":"48879 Pink Lights","geohash":"v65578xp6gxw"},{"lat":56.8604,"lng":60.6582,"address":"5888 Dicki Flat","geohash":"v655kr1gydb1"},{"lat":56.8621,"lng":60.6513,"address":"2114 Nestor Spur","geohash":"v655kpkvtxxn"},{"lat":56.8121,"lng":60.5949,"address":"2189 Lisandro Run","geohash":"v6554y7f7x03"},{"lat":57.8663,"lng":59.9504,"address":"28906 Corwin Ferry","geohash":"v669hnnx9s4j"},{"lat":56.8396,"lng":60.6732,"address":"8098 Price Loaf","geohash":"v655kekfsj2u"},{"lat":56.8294,"lng":60.6359,"address":"229 Adella Glens","geohash":"v6557c3xnzup"},{"lat":56.8094,"lng":60.6219,"address":"3739 Towne Place","geohash":"v6555mzd8xsy"},{"lat":55.42189941,"lng":37.76765241,"address":"9956 Gaylord Meadow","geohash":"ucfg73jxfnfg"},{"lat":56.8488,"lng":60.6204,"address":"29739 Francis Meadows","geohash":"v6557mn2m8qm"},{"lat":56.8217,"lng":60.6177,"address":"03024 Kelley Expressway","geohash":"v65572h6qu95"},{"lat":56.8067,"lng":60.6239,"address":"9745 Ada Unions","geohash":"v6555t2gp22h"},{"lat":56.8518,"lng":60.6384,"address":"94878 Virginie Rapid","geohash":"v6557ve99psh"},{"lat":56.7587,"lng":60.8101,"address":"3574 Greenfelder Spur","geohash":"v654zu8e6h91"},{"lat":56.851,"lng":60.5884,"address":"1166 Randy Walk","geohash":"v6556trjh498"},{"lat":56.8425,"lng":60.6375,"address":"46871 Jaskolski Knolls","geohash":"v6557gfgs4j0"},{"lat":55.7106,"lng":37.6056,"address":"003 Janie Tunnel","geohash":"ucfsztz9cbx9"},{"lat":56.8374,"lng":60.621,"address":"416 Satterfield Squares","geohash":"v65576yvgemc"},{"lat":56.8246,"lng":60.6172,"address":"17975 Wisozk Junction","geohash":"v65572s571hq"},{"lat":56.8287,"lng":60.5906,"address":"571 Kamille Mountain","geohash":"v6556c2epm3z"},{"lat":56.8201,"lng":60.5918,"address":"1634 Nolan Fork","geohash":"v6554zc9562d"},{"lat":56.8823,"lng":60.6143,"address":"91277 Precious Groves","geohash":"v655e71grt3b"},{"lat":56.8835,"lng":60.507,"address":"11785 Boyle Loaf","geohash":"v6558g7f7kcq"},{"lat":56.8979,"lng":60.7506,"address":"63078 Crona Viaduct","geohash":"v655wmvnr96d"},{"lat":56.8864,"lng":60.5865,"address":"907 Ahmad Prairie","geohash":"v655deverc8c"},{"lat":56.9076,"lng":60.8069,"address":"8392 Jammie View","geohash":"v655xxwnz3wb"},{"lat":56.9011,"lng":60.613,"address":"99331 Gleason Route","geohash":"v655eq90cmbd"},{"lat":57.1603,"lng":60.5721,"address":"0998 Luisa Fort","geohash":"v65j4meqbhpr"},{"lat":56.857,"lng":60.6508,"address":"2895 McGlynn Gateway","geohash":"v655kns84142"},{"lat":56.9045,"lng":60.8177,"address":"14147 Aisha Mission","geohash":"v655xznhepeu"},{"lat":56.8967,"lng":60.6284,"address":"76687 Witting Loaf","geohash":"v655etsr21ee"},{"lat":56.9025,"lng":60.5822,"address":"765 Batz Springs","geohash":"v655dwf95df6"},{"lat":56.8951,"lng":60.8351,"address":"52075 Dessie Point","geohash":"v6578m6vbx67"},{"lat":56.9719,"lng":60.5603,"address":"896 Gibson Path","geohash":"v65h456tm7bt"},{"lat":56.9678,"lng":60.4332,"address":"77339 Bartell Summit","geohash":"v64up4wj7xeg"},{"lat":56.8494,"lng":60.5592,"address":"2389 Germaine Grove","geohash":"v6556j1gg8k2"},{"lat":56.8546,"lng":60.5748,"address":"1605 Ryleigh Station","geohash":"v6556qj4p1se"},{"lat":56.9082,"lng":60.5996,"address":"5135 Jakubowski Field","geohash":"v655dzz6312g"},{"lat":56.857,"lng":60.5681,"address":"00390 Beahan Estate","geohash":"v6556q825108"},{"lat":56.8785,"lng":60.6183,"address":"16922 Ezra Springs","geohash":"v655e6kvkbbs"},{"lat":56.8961,"lng":60.6207,"address":"215 Mraz Throughway","geohash":"v655emweu9y0"},{"lat":56.8717,"lng":60.5468,"address":"8328 Schiller Vista","geohash":"v6559c0vdtq2"},{"lat":56.8967,"lng":60.6426,"address":"111 Shawn Points","geohash":"v655evwx6cxg"},{"lat":56.8912,"lng":60.5905,"address":"814 Skiles Vista","geohash":"v655du8xkbr6"},{"lat":56.8876,"lng":60.6059,"address":"381 Dolores Loop","geohash":"v655eh5f7c62"},{"lat":56.8538,"lng":60.5716,"address":"67118 Jesus Spring","geohash":"v6556mfvks6x"},{"lat":56.8979,"lng":60.743,"address":"2573 Windler Plaza","geohash":"v655wjzwq3rd"},{"lat":56.8898,"lng":60.5771,"address":"1865 Feeney Cove","geohash":"v655dkqzhere"},{"lat":56.8569,"lng":60.6035,"address":"554 Jerad Crescent","geohash":"v6557n6p7ykg"},{"lat":56.903,"lng":60.6234,"address":"2567 Gleason Turnpike","geohash":"v655ewbs5852"},{"lat":56.8903,"lng":59.9646,"address":"12547 Anna Groves","geohash":"v64ess8fh2wd"},{"lat":56.6256,"lng":57.7557,"address":"97965 Anthony Roads","geohash":"v6144k2kj2gm"},{"lat":56.9117,"lng":59.926,"address":"265 Annamarie Vista","geohash":"v64eg8ky9jb6"},{"lat":56.9044,"lng":59.9425,"address":"2735 Laury Ramp","geohash":"v64esp0u1mp8"},{"lat":57.264,"lng":60.139,"address":"47531 Nash Vista","geohash":"v64vb2xfur29"},{"lat":56.9123,"lng":59.9482,"address":"13503 Corkery Village","geohash":"v64eu0sfnm9v"},{"lat":56.6149,"lng":57.7766,"address":"105 Alfredo Road","geohash":"v6144drtsq73"},{"lat":56.4381,"lng":59.1226,"address":"6668 Isabel Heights","geohash":"v641165zb2mu"},{"lat":57.2295,"lng":60.0859,"address":"34343 Jannie Trace","geohash":"v64tx634nbn3"},{"lat":56.4161,"lng":58.5318,"address":"999 Maybelle Fords","geohash":"v618gyjx9g33"},{"lat":56.9058,"lng":59.946,"address":"31835 Mills Lake","geohash":"v64esp7k71cr"},{"lat":57.2498,"lng":60.0856,"address":"382 Jesse Plains","geohash":"v64txq0brbnx"},{"lat":56.9181,"lng":59.9491,"address":"1542 Makayla Summit","geohash":"v64eu1tegqbg"},{"lat":56.9126,"lng":59.9336,"address":"45726 Mertz Road","geohash":"v64egbd7fje4"},{"lat":56.8938,"lng":59.8867,"address":"26305 Brandt Knolls","geohash":"v64edv0nmm00"},{"lat":56.9127,"lng":59.9226,"address":"124 Swaniawski Freeway","geohash":"v64eg8dk9b1p"},{"lat":56.9175,"lng":59.9582,"address":"82615 Titus Prairie","geohash":"v64eu3s0rr42"},{"lat":56.8889,"lng":59.8815,"address":"0153 Trantow Underpass","geohash":"v64edsk3u5dd"},{"lat":56.8982,"lng":59.8808,"address":"35142 Jeanie Harbor","geohash":"v64edw5b5c0x"},{"lat":56.9087,"lng":59.9448,"address":"46477 Janiya Place","geohash":"v64espfmpndd"},{"lat":56.8927,"lng":59.9658,"address":"33529 Bradtke Tunnel","geohash":"v64essczbrvq"},{"lat":56.885,"lng":60.0096,"address":"8952 Hand Rest","geohash":"v64ete9ejh8f"},{"lat":56.6912,"lng":59.4252,"address":"23113 Danial Points","geohash":"v64682245t8s"},{"lat":56.9194,"lng":59.953,"address":"538 Melany Flat","geohash":"v64eu3b7w1hy"},{"lat":56.6623,"lng":59.3011,"address":"1057 Schneider Parkways","geohash":"v644m7j9zf31"},{"lat":54.80398617,"lng":32.04506078,"address":"3156 Mervin Lodge","geohash":"u9wzc0y8253p"},{"lat":56.7057,"lng":60.0839,"address":"279 Jakubowski Villages","geohash":"v64dx4zy8keh"},{"lat":57.2525,"lng":58.7238,"address":"25310 Jennings Villages","geohash":"v61v8q3rgxwc"},{"lat":57.0059,"lng":59.5976,"address":"17076 Padberg Flats","geohash":"v64kk1tektzr"},{"lat":57.3462,"lng":58.2225,"address":"6927 Araceli Gardens","geohash":"v61qhzs3fd6x"},{"lat":56.7936,"lng":59.9555,"address":"4122 Veum Lakes","geohash":"v64eh6fq8qmh"},{"lat":57.2211,"lng":60.0974,"address":"5063 Nicholaus Turnpike","geohash":"v64tx8c94fjm"},{"lat":57.2178,"lng":60.0942,"address":"6443 Schamberger Rapid","geohash":"v64tx2pmb6gr"},{"lat":56.8055,"lng":57.8856,"address":"5862 Fahey Corners","geohash":"v615jjph00xy"},{"lat":56.3951,"lng":61.9411,"address":"00380 Rippin Corners","geohash":"v6h0cd2jk0xe"},{"lat":56.4335,"lng":61.8928,"address":"6198 Bode Village","geohash":"v6h103kuyybs"},{"lat":54.155,"lng":37.5855,"address":"682 Shaniya Forges","geohash":"ucdsp68gtxsn"},{"lat":56.5043,"lng":60.8087,"address":"079 Wallace Manor","geohash":"v651rwr93kvn"},{"lat":56.4448,"lng":60.1591,"address":"54526 Eleanora Fork","geohash":"v64c0gqwb9k5"},{"lat":56.3878,"lng":61.9625,"address":"716 Towne Mission","geohash":"v6h0ccpdwzu9"},{"lat":57.007,"lng":61.4429,"address":"718 Axel Divide","geohash":"v65sq1v3g74b"},{"lat":56.7958,"lng":61.3153,"address":"8324 Paucek Squares","geohash":"v65e5727w03r"},{"lat":56.4242,"lng":61.9031,"address":"88320 Nicolas Divide","geohash":"v6h0bxsqyc0z"},{"lat":56.3859,"lng":61.9404,"address":"77039 Nicklaus River","geohash":"v6h0c2xxevtg"},{"lat":56.3525,"lng":61.9766,"address":"4416 Homenick Unions","geohash":"v6h0d69vp7qk"},{"lat":56.4524,"lng":61.8799,"address":"791 Rolfson Glen","geohash":"v6h10hge44je"},{"lat":56.6889,"lng":60.7989,"address":"436 Durgan Plaza","geohash":"v654rxbkv0cs"},{"lat":56.3792,"lng":61.947,"address":"0596 Myron Harbors","geohash":"v6h09xs2tsxh"},{"lat":56.5073,"lng":60.2689,"address":"29198 Mohr Isle","geohash":"v64c7qy6zhjn"},{"lat":56.5007,"lng":60.828,"address":"37903 Curtis Estates","geohash":"v6532jts7ju5"},{"lat":56.4385,"lng":60.7521,"address":"73679 Reynold Vista","geohash":"v651n6q64dcn"},{"lat":56.5565,"lng":61.4287,"address":"4282 Leannon Creek","geohash":"v659tzg12rwx"},{"lat":56.5013,"lng":60.2626,"address":"712 Uriah Bridge","geohash":"v64c7m9zumeq"},{"lat":56.4293,"lng":61.8924,"address":"852 Jazmyne Row","geohash":"v6h102ssmryq"},{"lat":56.7115,"lng":60.8219,"address":"815 Marc Tunnel","geohash":"v6568h10kvzd"},{"lat":56.4322,"lng":61.8523,"address":"19202 Balistreri Dale","geohash":"v65cp3pmrh99"},{"lat":56.3464,"lng":61.9779,"address":"4056 Armani Crossroad","geohash":"v6h0d3dctdrb"},{"lat":56.7098,"lng":60.8115,"address":"973 Rhoda Expressway","geohash":"v654xg9wd8uv"},{"lat":56.681,"lng":60.582,"address":"112 Kling Unions","geohash":"v6546w6qybjr"},{"lat":56.4704,"lng":61.6154,"address":"0009 Lewis Avenue","geohash":"v65c604gyvs1"},{"lat":56.384,"lng":61.9669,"address":"8769 Mikel Garden","geohash":"v6h0f06ut7mt"},{"lat":56.4423,"lng":61.8119,"address":"257 Abernathy Land","geohash":"v65cne401xm4"},{"lat":56.4333,"lng":61.4106,"address":"02917 George Street","geohash":"v659j3mgf9w7"},{"lat":56.4233,"lng":61.9478,"address":"3621 Manuela Knoll","geohash":"v6h0cxt1837w"},{"lat":57.0006,"lng":61.4549,"address":"538 McKenzie Forge","geohash":"v65sq2whdcyx"},{"lat":56.6962,"lng":60.5378,"address":"9470 Morissette Lock","geohash":"v654994r2cxq"},{"lat":56.5019,"lng":60.8136,"address":"712 Brady Mission","geohash":"v651rvg57tdf"},{"lat":56.4242,"lng":61.9134,"address":"4202 Oma Wells","geohash":"v6h0bzeyyc1p"},{"lat":56.6913,"lng":60.5137,"address":"0074 Marks Flat","geohash":"v654902dz2m1"},{"lat":56.6364,"lng":60.5866,"address":"60309 Herminio Lakes","geohash":"v6544wmffn5m"},{"lat":57.0886,"lng":61.6816,"address":"9909 Domenic Cove","geohash":"v65ug8ejjqqe"},{"lat":57.016,"lng":61.4554,"address":"8039 Dante Gardens","geohash":"v65sq7qqq8ex"},{"lat":56.4229,"lng":61.9303,"address":"51330 Parker Isle","geohash":"v6h0cr2r0wfs"},{"lat":57.1126,"lng":61.3981,"address":"390 Deon Stream","geohash":"v65svjh9p2m9"},{"lat":56.5143,"lng":60.2683,"address":"5211 Filomena Hill","geohash":"v64ce2n59jjd"},{"lat":55.5901,"lng":37.4525,"address":"7362 Geoffrey Fork","geohash":"ucfshrb5f98p"},{"lat":56.3888,"lng":61.919,"address":"542 Elise Springs","geohash":"v6h0c120960y"},{"lat":56.4929,"lng":60.2454,"address":"51497 McDermott Landing","geohash":"v64c6ujqgxf4"},{"lat":56.4005,"lng":61.89,"address":"6040 Mueller Walks","geohash":"v6h0b76utx0z"},{"lat":56.3841,"lng":61.9246,"address":"540 Feeney Isle","geohash":"v6h0c0kj5y03"},{"lat":56.493,"lng":60.2362,"address":"61174 Micheal Fords","geohash":"v64c6snxt4qp"},{"lat":56.7005,"lng":60.8465,"address":"39197 Silas Plaza","geohash":"v6568d5065qc"},{"lat":56.427,"lng":61.8905,"address":"249 Lesch Highway","geohash":"v6h1025r15jw"},{"lat":56.7543,"lng":61.0355,"address":"113 Stamm Road","geohash":"v656ugu9y0r6"},{"lat":56.6922,"lng":60.836,"address":"8381 Madelyn Parkway","geohash":"v65682e2j813"},{"lat":56.4198,"lng":61.9118,"address":"5428 Audra Light","geohash":"v6h0byfv1t00"},{"lat":56.4992,"lng":60.2514,"address":"83995 Dustin Way","geohash":"v64c7j3exqhp"},{"lat":53.26145385,"lng":34.31983,"address":"18463 Foster Rue","geohash":"uc2quzyyqn85"},{"lat":56.4401,"lng":60.1716,"address":"19249 Gerald Row","geohash":"v64c14xe7vhy"},{"lat":56.4963,"lng":60.2373,"address":"164 Norene Forges","geohash":"v64c6sz6ycdk"},{"lat":56.5034,"lng":60.8177,"address":"646 Hane Way","geohash":"v651rynh5j5v"},{"lat":56.3917,"lng":61.9355,"address":"0187 Ernser Station","geohash":"v6h0c3u13yb1"},{"lat":56.6858,"lng":60.5046,"address":"069 Elvis Camp","geohash":"v6542z64er58"},{"lat":56.6278,"lng":60.3805,"address":"320 Carroll Prairie","geohash":"v64fjuz8zeh0"},{"lat":57.0053,"lng":61.5209,"address":"822 Providenci Cove","geohash":"v65srcqpuy5g"},{"lat":56.8153,"lng":61.3254,"address":"704 Reva Plains","geohash":"v65e5qzv17s9"},{"lat":56.7575,"lng":61.4191,"address":"0541 Kenton Divide","geohash":"v65dvskh2ub7"},{"lat":56.3822,"lng":61.9765,"address":"5100 Lavina Ports","geohash":"v6h0f21fj5gg"},{"lat":56.4164,"lng":61.9195,"address":"44511 Anna Corner","geohash":"v6h0cn23kgjw"},{"lat":56.4179,"lng":61.8826,"address":"420 Alford Flat","geohash":"v6h0bntd14ff"},{"lat":56.3927,"lng":61.9431,"address":"3629 Dorthy Cliff","geohash":"v6h0c9cx6c5n"},{"lat":56.6559,"lng":60.7034,"address":"74008 Cordia Squares","geohash":"v654m3fue9px"},{"lat":56.6768,"lng":60.8065,"address":"587 Brandy Isle","geohash":"v654rttyq1k9"},{"lat":56.6255,"lng":61.2968,"address":"29692 Aisha Squares","geohash":"v65d4u6gqyqb"},{"lat":56.6366,"lng":60.8235,"address":"8093 Paige Well","geohash":"v6560n6k472y"},{"lat":57.9391,"lng":60.0166,"address":"494 Auer Cape","geohash":"v669teqz8ph9"},{"lat":60.1296,"lng":64.7785,"address":"770 Sipes Rapids","geohash":"v6wn446223ye"},{"lat":57.733,"lng":59.8772,"address":"4902 Mina Drives","geohash":"v6686tcppghr"},{"lat":62.1615,"lng":65.4539,"address":"95299 Syble Junctions","geohash":"v7n99knhfrmr"},{"lat":61.3702,"lng":63.5522,"address":"38312 Dicki Glens","geohash":"v6vjnhj73d6y"},{"lat":57.9278,"lng":59.9766,"address":"9789 Lueilwitz Square","geohash":"v669sc3tuhd6"},{"lat":59.6,"lng":60.5542,"address":"30774 Modesto Track","geohash":"v6e51cy5pjk0"},{"lat":58.0475,"lng":60.5785,"address":"16380 Vallie Keys","geohash":"v6744rpzjq79"},{"lat":60.1268,"lng":64.8157,"address":"7981 Norene Ranch","geohash":"v6wn4ctrgrbu"},{"lat":57.7877,"lng":60.0541,"address":"85235 Solon Canyon","geohash":"v668wxfjcbn9"},{"lat":58.635,"lng":59.801,"address":"085 Farrell Port","geohash":"v66t8f1v8k1x"},{"lat":57.87,"lng":59.9568,"address":"1501 Hayes Lodge","geohash":"v669hqgjntyk"},{"lat":57.9143,"lng":60.1167,"address":"8931 Michelle Inlet","geohash":"v669ryzxk8h2"},{"lat":59.6077,"lng":60.5684,"address":"06719 Nolan Bridge","geohash":"v6e54728408k"},{"lat":57.4398,"lng":60.0564,"address":"492 Mafalda Groves","geohash":"v64wy8eepdc9"},{"lat":58.7899,"lng":59.7217,"address":"5582 Johnson Rest","geohash":"v66qrn25brxj"},{"lat":60.6988,"lng":60.4178,"address":"34988 Kimberly Mews","geohash":"v6fcqcfuhu2v"},{"lat":57.5356,"lng":60.2895,"address":"332 Stracke Loaf","geohash":"v64z7fj3pjjw"},{"lat":61.3651,"lng":63.5147,"address":"300 Marcellus Glens","geohash":"v6vjj71vxgbb"},{"lat":58.356,"lng":60.0385,"address":"6916 Balistreri Summit","geohash":"v66eypqsq6y7"},{"lat":57.9172,"lng":60.1252,"address":"392 Howell Road","geohash":"v66c2ptb4swe"},{"lat":57.904,"lng":60.1284,"address":"9975 Celia Shoal","geohash":"v66c2m05jrbw"},{"lat":59.7829,"lng":59.9895,"address":"7503 Nienow Shore","geohash":"v6dsj55h8sm3"},{"lat":57.9099,"lng":60.0878,"address":"86728 Jerde Passage","geohash":"v669rq4te5z1"},{"lat":58.2842,"lng":59.7679,"address":"640 Denis Radial","geohash":"v66e843dj427"},{"lat":58.2821,"lng":59.76,"address":"3299 Torrey Wells","geohash":"v667xcgvufvs"},{"lat":57.9182,"lng":60.1156,"address":"62107 Stehr Gardens","geohash":"v669rzwvgp02"},{"lat":60.2386,"lng":59.9875,"address":"8936 Robin Island","geohash":"v6dwtn1e60cv"},{"lat":58.1636,"lng":59.7002,"address":"82349 Altenwerth Inlet","geohash":"v666ys27e2zs"},{"lat":61.3159,"lng":63.3425,"address":"5800 Towne Villages","geohash":"v6vhc6hx50pq"},{"lat":58.6969,"lng":59.458,"address":"161 Stroman Burg","geohash":"v66mbvrypz4p"},{"lat":58.6184,"lng":59.8804,"address":"711 Itzel Roads","geohash":"v66t6x5sfmy2"},{"lat":59.7619,"lng":60.0069,"address":"5307 Weissnat Camp","geohash":"v6devrrdq1ee"},{"lat":61.1997,"lng":62.8461,"address":"746 Mraz Fork","geohash":"v6usnj54h6bw"},{"lat":62.1483,"lng":65.4485,"address":"549 Mitchell Key","geohash":"v7n993f0hdfd"},{"lat":57.9216,"lng":59.9427,"address":"524 Karlee Street","geohash":"v669s02cy0ud"},{"lat":61.3657,"lng":63.5873,"address":"001 Tate Court","geohash":"v6vjngqc57x7"},{"lat":62.1393,"lng":65.3874,"address":"845 Herman Glen","geohash":"v7n3xbjesv56"},{"lat":59.609,"lng":60.5845,"address":"676 Klein Mountain","geohash":"v6e54ekr94vr"},{"lat":57.9144,"lng":60.1415,"address":"4781 Luigi Way","geohash":"v66c2wcxyd8s"},{"lat":57.8821,"lng":59.9438,"address":"567 Grady Ferry","geohash":"v669k11exv2z"},{"lat":58.6233,"lng":59.8588,"address":"9115 Rippin Divide","geohash":"v66td05c7phm"},{"lat":57.9249,"lng":60.1229,"address":"786 Hegmann Point","geohash":"v66c80uhvpgx"},{"lat":57.961,"lng":60.0814,"address":"6969 Beier Port","geohash":"v669xpmzq1db"},{"lat":58.6311,"lng":59.8529,"address":"51643 Bernadette View","geohash":"v66t9crwcthy"},{"lat":57.4917,"lng":60.2195,"address":"539 Keanu Walk","geohash":"v64z46492j9t"},{"lat":58.2806,"lng":59.7727,"address":"3477 Volkman Radial","geohash":"v66e81tjhg78"},{"lat":59.6114,"lng":60.5982,"address":"439 Ines Estates","geohash":"v6e54gym86ku"},{"lat":59.6033,"lng":60.5881,"address":"7927 Damon Spring","geohash":"v6e54dqymh3v"},{"lat":58.3583,"lng":59.8305,"address":"17449 Medhurst Prairie","geohash":"v66ecrz1xxw7"},{"lat":58.6936,"lng":59.4851,"address":"6632 Keaton Cliff","geohash":"v66mcsgep213"},{"lat":58.3539,"lng":60.0449,"address":"6435 Grant Path","geohash":"v66eyr525e6s"},{"lat":59.7593,"lng":60.181,"address":"5101 Witting Harbor","geohash":"v6dgcqy7nuyj"},{"lat":59.9343,"lng":60.0799,"address":"47630 Pollich Tunnel","geohash":"v6dsznsye5k3"},{"lat":57.9077,"lng":60.0866,"address":"015 Itzel Shore","geohash":"v669rmc8z38m"},{"lat":58.7003,"lng":59.4665,"address":"2216 Kreiger Lake","geohash":"v66mcnn4jch0"},{"lat":59.7596,"lng":60.0086,"address":"64048 Morissette Tunnel","geohash":"v6devwbuvsz7"},{"lat":59.7748,"lng":59.9855,"address":"0172 Esta Track","geohash":"v6dsj18j7qqe"},{"lat":58.0504,"lng":60.5517,"address":"5359 Raynor Stream","geohash":"v6741zu2hfuh"},{"lat":59.601,"lng":60.5822,"address":"234 Rodger Corners","geohash":"v6e54d48gxdm"},{"lat":57.9094,"lng":59.9477,"address":"8944 Remington Harbors","geohash":"v669knhddwsf"},{"lat":59.7667,"lng":60.2259,"address":"388 Philip Estates","geohash":"v6du42pnm0mu"},{"lat":58.2666,"lng":59.7131,"address":"7003 Hand Crossing","geohash":"v667qz1g816x"},{"lat":58.0764,"lng":60.6974,"address":"17743 Justina Overpass","geohash":"v674mhqrxctu"},{"lat":57.9281,"lng":59.963,"address":"0721 Queenie Expressway","geohash":"v669s3rxxht2"},{"lat":57.9727,"lng":59.965,"address":"54831 Schumm Place","geohash":"v669u995my8c"},{"lat":60.1517,"lng":59.9506,"address":"208 Gusikowski Valleys","geohash":"v6dwhnq9n1x7"},{"lat":58.0514,"lng":60.5817,"address":"505 Durward Courts","geohash":"v6744xfjzvm9"},{"lat":57.912,"lng":59.9877,"address":"729 Kub Wall","geohash":"v669mn99yer0"},{"lat":58.167,"lng":59.702,"address":"8538 Jordan Terrace","geohash":"v666yscxm6ty"},{"lat":58.0468,"lng":60.5503,"address":"9296 Rachel Forks","geohash":"v6741z57h7b1"},{"lat":59.7609,"lng":60.1923,"address":"5191 Johns Drive","geohash":"v6dgcxnsqppy"},{"lat":57.9187,"lng":59.9313,"address":"417 Reilly Path","geohash":"v6697zb8us0p"},{"lat":58.0512,"lng":60.5479,"address":"8228 D'angelo Parks","geohash":"v6741zcsu248"},{"lat":59.7659,"lng":60.204,"address":"07884 Keaton Course","geohash":"v6du1bp1wgk0"},{"lat":58.0473,"lng":60.5413,"address":"404 Gaylord Mountains","geohash":"v6741xhy4910"},{"lat":57.4871,"lng":60.214,"address":"17038 Nakia Flat","geohash":"v64z41nqxuhs"},{"lat":58.6932,"lng":59.4765,"address":"68562 Augustine Road","geohash":"v66mckv2wvkz"},{"lat":57.9159,"lng":59.939,"address":"32337 Block Way","geohash":"v6697zq0xfmb"},{"lat":57.3766,"lng":59.9391,"address":"975 Hilll Lodge","geohash":"v64w7vn6fm2q"},{"lat":57.9198,"lng":59.9665,"address":"1840 Terry Keys","geohash":"v669kxfr29r2"},{"lat":58.6346,"lng":59.7779,"address":"607 Hilll Turnpike","geohash":"v66t860gq18v"},{"lat":59.1836,"lng":60.5225,"address":"863 Bryon Streets","geohash":"v6e09np1kqwv"},{"lat":62.1391,"lng":65.4424,"address":"224 Blick Club","geohash":"v7n990jdqry1"},{"lat":61.315,"lng":63.3264,"address":"276 Jody Burgs","geohash":"v6vhc40cu06m"},{"lat":46.5073,"lng":41.3515,"address":"199 Oren Fords","geohash":"ubm2sfrhxv14"},{"lat":62.1451,"lng":65.4416,"address":"6914 Hans Terrace","geohash":"v7n991jj7y39"},{"lat":62.5476,"lng":65.6432,"address":"97692 Streich View","geohash":"v7nevdryjmtx"},{"lat":61.3111,"lng":63.3347,"address":"598 Sawayn Way","geohash":"v6vhc1qgj3rj"},{"lat":56.3302,"lng":36.7306,"address":"9225 Mosciski Views","geohash":"uf407yd7jn27"},{"lat":56.7623,"lng":62.0483,"address":"966 Lynch Key","geohash":"v6h4gvq0q5tu"},{"lat":57.3444,"lng":61.8884,"address":"33364 Cormier Trace","geohash":"v6hn0r1z24zy"},{"lat":57.3792,"lng":62.3239,"address":"50014 Deckow Flats","geohash":"v6hq6jwfh4hh"},{"lat":56.9114,"lng":62.1354,"address":"39758 Jamel Mountains","geohash":"v6h5vbmsgvbk"},{"lat":56.7886,"lng":62.0346,"address":"50743 Larkin Grove","geohash":"v6h55dh1wfq6"},{"lat":56.8417,"lng":62.7368,"address":"9181 Jenkins Skyway","geohash":"v6he7eewckue"},{"lat":57.3463,"lng":61.8836,"address":"95108 Gudrun Rest","geohash":"v6hn0pw62mhs"},{"lat":56.7261,"lng":62.8482,"address":"4015 Lindgren Drives","geohash":"v6hdwnstmpqx"},{"lat":56.8992,"lng":62.0184,"address":"26145 Jean Drive","geohash":"v6h5eq0mv7wu"},{"lat":56.9007,"lng":62.0249,"address":"2130 Toby Plaza","geohash":"v6h5eqmnsgm8"},{"lat":57.8516,"lng":61.6797,"address":"9211 Haylee Locks","geohash":"v67c5e9ccpvu"},{"lat":57.373,"lng":61.384,"address":"067 Autumn Crescent","geohash":"v65wku6myy7g"},{"lat":56.9011,"lng":62.0371,"address":"210 Tracey Islands","geohash":"v6h5eww0cjyd"},{"lat":57.9811,"lng":61.6637,"address":"5177 Isaiah Junction","geohash":"v67cg5nhkk7m"},{"lat":56.7805,"lng":61.7093,"address":"46967 Oma Shore","geohash":"v65gh0x66um5"},{"lat":56.7094,"lng":62.0685,"address":"661 Jacobs Cape","geohash":"v6h4s7suhyk5"},{"lat":56.7762,"lng":62.0442,"address":"1386 Geovanny Skyway","geohash":"v6h4gzg1qdu9"},{"lat":57.8715,"lng":61.6968,"address":"042 Enos Meadow","geohash":"v67c5znjzts2"},{"lat":56.8977,"lng":62.0378,"address":"76443 Boris Tunnel","geohash":"v6h5etyt1s02"},{"lat":57.3378,"lng":61.8945,"address":"9816 Muller Streets","geohash":"v6hn0qn0yks7"},{"lat":57.265,"lng":61.9924,"address":"615 Legros Skyway","geohash":"v6hjf8v2z9ey"},{"lat":56.8416,"lng":62.7138,"address":"596 Stracke Pike","geohash":"v6he75dy36nx"},{"lat":56.9265,"lng":63.0162,"address":"251 Gislason Stravenue","geohash":"v6hgcgnuzusr"},{"lat":57.8419,"lng":61.6828,"address":"73614 Gerlach Drive","geohash":"v67c59u13rtm"},{"lat":57.3612,"lng":61.399,"address":"0353 Will Parkway","geohash":"v65wm4m3hqsw"},{"lat":56.7789,"lng":62.0239,"address":"992 Jacobs Stream","geohash":"v6h552k3jd5g"},{"lat":57.3691,"lng":61.3728,"address":"7927 Hodkiewicz Hills","geohash":"v65wkedr1zke"},{"lat":57.8355,"lng":61.6956,"address":"216 Wilkinson Run","geohash":"v67c5btk5wte"},{"lat":56.8441,"lng":62.7127,"address":"1319 Conn Drive","geohash":"v6he7h1uzu62"},{"lat":57.997,"lng":61.6906,"address":"5762 Wilfred Villages","geohash":"v67cgy19p0mk"},{"lat":57.8509,"lng":61.7005,"address":"7248 Kristopher Inlet","geohash":"v67ch52vvv7k"},{"lat":57.3391,"lng":61.8981,"address":"24150 Arden Key","geohash":"v6hn0w2b6qbw"},{"lat":56.7723,"lng":62.0416,"address":"765 Larkin Extensions","geohash":"v6h4gz16d5cb"},{"lat":56.8472,"lng":62.6984,"address":"88787 Deven Junctions","geohash":"v6he6sxwfw5s"},{"lat":58.4496,"lng":61.7289,"address":"02320 Tracey Plain","geohash":"v67us8mtee5v"},{"lat":57.3427,"lng":61.3354,"address":"843 Stokes Station","geohash":"v65w5wzj6qj1"},{"lat":57.3593,"lng":61.8656,"address":"2112 Klein Station","geohash":"v65yrccnhuwb"},{"lat":56.8965,"lng":62.0308,"address":"0225 Zachariah Dam","geohash":"v6h5et9qnkkf"},{"lat":56.9104,"lng":62.0387,"address":"369 Zelma Corners","geohash":"v6h5g8ppn7rx"},{"lat":57.3375,"lng":61.9021,"address":"90580 Marquardt Dam","geohash":"v6hn0tgxpkxn"},{"lat":57.3469,"lng":61.8653,"address":"2823 Stan Row","geohash":"v65ypz8vvuzp"},{"lat":56.8524,"lng":62.7128,"address":"816 Ziemann Square","geohash":"v6he7jdj4pkz"},{"lat":56.8442,"lng":62.7173,"address":"63268 Drew Highway","geohash":"v6he7hjm7nbm"},{"lat":56.7722,"lng":62.0513,"address":"48868 Doyle Motorway","geohash":"v6h4up06h14u"},{"lat":57.87,"lng":61.7052,"address":"619 Sylvia Row","geohash":"v67chnum5mgu"},{"lat":57.8498,"lng":61.6695,"address":"9860 Johann Mount","geohash":"v67c574re824"},{"lat":57.28,"lng":61.9976,"address":"173 Berge Trail","geohash":"v6hjfg920vcj"},{"lat":57.3655,"lng":61.4284,"address":"7790 Hessel Junctions","geohash":"v65wmg4f32qb"},{"lat":56.7969,"lng":60.5787,"address":"88987 Carlo Loaf","geohash":"v6554e81fj89"},{"lat":56.7561,"lng":60.6981,"address":"5543 Langworth Spurs","geohash":"v654vhph0pzu"},{"lat":56.7975,"lng":60.6375,"address":"37293 Vicente Underpass","geohash":"v6555gdvkjmh"},{"lat":56.8143,"lng":60.5881,"address":"85972 Rempel Branch","geohash":"v6554wwzm11u"},{"lat":56.7803,"lng":60.6431,"address":"8545 Larson Villages","geohash":"v6555bwcnxhf"},{"lat":56.7788,"lng":60.5302,"address":"726 Clair Route","geohash":"v65512k8rzkq"},{"lat":56.8217,"lng":60.5712,"address":"20869 Vandervort Camp","geohash":"v655624d7k87"},{"lat":56.8134,"lng":60.5661,"address":"0855 White Overpass","geohash":"v6554nwfh3m7"},{"lat":56.8201,"lng":60.5543,"address":"517 Fadel Course","geohash":"v6551zy316qd"},{"lat":56.7682,"lng":60.6133,"address":"408 Rowe Forks","geohash":"v654gq368r2r"},{"lat":56.7451,"lng":60.6926,"address":"7501 Cortney Walks","geohash":"v654v45h0j6d"},{"lat":56.84,"lng":60.5518,"address":"654 Thompson Drive","geohash":"v6553gkkzpyx"},{"lat":56.7543,"lng":60.6171,"address":"661 Anderson Spring","geohash":"v654g7u1bb3f"},{"lat":54.76397725,"lng":32.09534984,"address":"06721 Columbus Union","geohash":"u9wzd37p7c73"},{"lat":55.620489,"lng":37.470761,"address":"964 Lindgren Common","geohash":"ucfsktmku48k"},{"lat":56.7486,"lng":60.681,"address":"538 Duncan Lock","geohash":"v654uff89cc0"},{"lat":56.7819,"lng":60.5211,"address":"51998 Myles Cove","geohash":"v65510y4ec6g"},{"lat":56.8315,"lng":60.5428,"address":"02453 Jordan Skyway","geohash":"v65539vgmrrw"},{"lat":56.8068,"lng":60.5457,"address":"124 Ellie Forges","geohash":"v6551v259541"},{"lat":56.7554,"lng":60.6088,"address":"864 Hallie Pike","geohash":"v654ghjbpmku"},{"lat":56.7844,"lng":60.6506,"address":"9309 Emery Common","geohash":"v655h1k3j7mh"},{"lat":56.7892,"lng":60.6454,"address":"0749 Christy Plains","geohash":"v655h40th4pv"},{"lat":56.7814,"lng":60.5512,"address":"0076 Lurline Brooks","geohash":"v6551bsp9hph"},{"lat":56.822,"lng":60.5446,"address":"4064 Carolanne Landing","geohash":"v65538phpktb"},{"lat":56.7859,"lng":60.5222,"address":"326 Schneider Shores","geohash":"v65511wcv7p0"},{"lat":56.7974,"lng":60.5865,"address":"42460 Stephon Circles","geohash":"v6554etszfbb"},{"lat":56.7941,"lng":60.5799,"address":"699 Thalia Mountains","geohash":"v6554e0ctgx6"},{"lat":56.7738,"lng":60.6659,"address":"17149 Johnson Mount","geohash":"v654urre3gms"},{"lat":56.8372,"lng":60.558,"address":"07294 Efren Avenue","geohash":"v65564buxwj8"},{"lat":56.7889,"lng":60.5152,"address":"2329 Sim Estate","geohash":"v655141g665x"},{"lat":56.7514,"lng":60.6943,"address":"909 Prosacco Hill","geohash":"v654v5k0zewr"},{"lat":56.7909,"lng":60.5244,"address":"731 Mayer Rapids","geohash":"v655162wbxpd"},{"lat":56.8099,"lng":60.5156,"address":"10201 Towne Station","geohash":"v6551jfjesvv"},{"lat":56.778,"lng":60.6034,"address":"040 Runolfsson Fall","geohash":"v6555045cd66"},{"lat":56.785,"lng":60.5184,"address":"5920 Neva Garden","geohash":"v65511khsgjx"},{"lat":56.7731,"lng":60.5449,"address":"036 Hackett Vista","geohash":"v654cxprq2vt"},{"lat":56.7909,"lng":60.5763,"address":"479 Rath Islands","geohash":"v65546qqfp54"},{"lat":56.8036,"lng":60.5788,"address":"968 Bashirian Underpass","geohash":"v6554sb0uqe0"},{"lat":56.7915,"lng":59.91,"address":"099 Mertz Unions","geohash":"v64e5694knvv"},{"lat":47.6424,"lng":40.8686,"address":"341 Ortiz Land","geohash":"ubmp1cp957hc"},{"lat":47.6981,"lng":40.1948,"address":"8262 Baumbach Points","geohash":"ubkx6ehvwdr1"},{"lat":54.1885,"lng":37.613,"address":"74828 Dare Knoll","geohash":"ucdsrbsyykt9"},{"lat":56.7752,"lng":60.6056,"address":"90172 Hand Course","geohash":"v654gpeesb6u"},{"lat":56.8104,"lng":60.5645,"address":"60830 Norris Island","geohash":"v6554nj8x4hk"},{"lat":56.7791,"lng":60.6129,"address":"710 Toy Courts","geohash":"v655522fnzqh"},{"lat":56.7936,"lng":60.5082,"address":"1451 Tanya Street","geohash":"v6550fuwxq2h"},{"lat":56.7916,"lng":60.537,"address":"184 Avis Mountain","geohash":"v6551d9en3dc"},{"lat":56.801,"lng":60.5587,"address":"756 Kohler Port","geohash":"v6554h33zcze"},{"lat":56.8203,"lng":60.566,"address":"5659 Maude Place","geohash":"v6554pyf4pdu"},{"lat":54.201,"lng":37.6453,"address":"48209 Eliezer Neck","geohash":"ucdu2durxndn"},{"lat":54.2143,"lng":37.6062,"address":"4009 Miller Ford","geohash":"ucdsrtrvpyp0"},{"lat":54.1672,"lng":37.5684,"address":"08133 Torrey Mill","geohash":"ucdsnuu6z1vq"},{"lat":55.9321,"lng":39.6279,"address":"177 Dasia Gateway","geohash":"ucunjy0hhgpu"},{"lat":55.6348,"lng":40.6274,"address":"266 Jennyfer Ramp","geohash":"ucuus2pbpn3j"},{"lat":55.9491,"lng":39.2397,"address":"650 Mozell Summit","geohash":"ucgykcjrpk1j"},{"lat":55.992,"lng":40.0274,"address":"835 Towne Rest","geohash":"ucuqwc51412d"},{"lat":53.26279867,"lng":34.31218768,"address":"940 Nicolas Light","geohash":"uc2rhb1q7cm9"},{"lat":55.5924,"lng":42.0341,"address":"890 Boyer Via","geohash":"ucvuk8231w2x"},{"lat":55.6128,"lng":40.6807,"address":"241 Freeda Overpass","geohash":"ucuumsnb1123"},{"lat":55.6209,"lng":40.6913,"address":"3792 Clarabelle Roads","geohash":"ucuumvqx0p22"},{"lat":56.017,"lng":39.961,"address":"089 Trevion Greens","geohash":"ucuqtmddwv9k"},{"lat":55.6154,"lng":40.6553,"address":"545 Stamm Loaf","geohash":"ucuumhkr1juz"},{"lat":56.8728,"lng":37.3579,"address":"5801 Delaney Shore","geohash":"uf4ed17hn4m4"},{"lat":56.8472,"lng":37.3693,"address":"382 Eichmann Skyway","geohash":"uf4e6keqzy1s"},{"lat":56.0147,"lng":39.9517,"address":"6919 Raleigh Vista","geohash":"ucuqtj5vq0fs"},{"lat":56.7153,"lng":36.773,"address":"4344 O'Connell Road","geohash":"uf44su9q940n"},{"lat":57.3567,"lng":37.5994,"address":"2234 Antwon Centers","geohash":"uf4wr97ncxbd"},{"lat":56.2613,"lng":34.3548,"address":"418 Kovacek Estates","geohash":"uf02jf03uf7x"},{"lat":56.2405,"lng":34.3235,"address":"382 McGlynn Square","geohash":"ucbrvn38et0d"},{"lat":56.1773,"lng":34.5672,"address":"4867 Rollin Prairie","geohash":"ucbxddg06psr"},{"lat":56.8784,"lng":37.3436,"address":"730 Casper Mountains","geohash":"uf4e9f2u8yq2"},{"lat":57.3582,"lng":37.6135,"address":"50392 Zulauf Hill","geohash":"uf4wrctrdp6q"},{"lat":57.2357,"lng":37.8462,"address":"695 Violet Vista","geohash":"uf4vt5qy07u1"},{"lat":56.5153,"lng":34.9337,"address":"29545 Kari Shore","geohash":"uf0cdbmcqpw8"},{"lat":56.0153,"lng":37.8362,"address":"74679 Kuphal Light","geohash":"ucfysvr2z2ex"},{"lat":55.9981,"lng":37.865,"address":"7312 Nikolaus Turnpike","geohash":"ucfytdhkw6qm"},{"lat":55.963,"lng":37.8099,"address":"639 Schowalter Dam","geohash":"ucfyk7u24e2f"},{"lat":53.9285,"lng":40.0243,"address":"05209 Malcolm Burgs","geohash":"ucs6yc2u3c11"},{"lat":53.5809,"lng":39.4499,"address":"98638 Jones Point","geohash":"ucs0cdne379q"},{"lat":54.7188,"lng":39.8228,"address":"0699 Will Union","geohash":"ucsr61q047xu"},{"lat":54.0257,"lng":41.7113,"address":"2649 Forrest Village","geohash":"uctem5j4x8rt"},{"lat":53.7079,"lng":40.0615,"address":"06224 Cheyanne Crescent","geohash":"ucs3x95zhw5w"},{"lat":54.9455,"lng":41.4062,"address":"24312 Skiles Port","geohash":"ucv2w4x0drs6"},{"lat":54.9453,"lng":41.4201,"address":"2361 Kutch Burg","geohash":"ucv2wd3pw631"},{"lat":53.8152,"lng":39.5245,"address":"00982 Swift Streets","geohash":"ucs45kub787k"},{"lat":54.6097,"lng":40.0278,"address":"8369 West Roads","geohash":"ucsqwv7ke3fv"},{"lat":53.8097,"lng":39.5571,"address":"88524 Shields Valleys","geohash":"ucs4h5u85ppe"},{"lat":54.2262,"lng":39.0154,"address":"2262 Kacey Court","geohash":"ucesrzd4s8qf"},{"lat":54.9387,"lng":41.4028,"address":"29241 Demetrius Ports","geohash":"ucv2w1k955vq"},{"lat":53.4748,"lng":40.2057,"address":"0499 Kiehn Stream","geohash":"ucs84yuck9nz"},{"lat":54.7304,"lng":39.5067,"address":"5454 Rowe Corner","geohash":"ucsp6grgsy48"},{"lat":54.2606,"lng":41.4535,"address":"42074 Kiel Point","geohash":"uctkxmcdbscy"},{"lat":54.4121,"lng":40.3809,"address":"170 Lon Glens","geohash":"ucstwckmrnt7"},{"lat":54.5593,"lng":42.4701,"address":"43012 Keyshawn Field","geohash":"ucwnqkjycn9v"},{"lat":53.9427,"lng":40.6833,"address":"678 Nat Springs","geohash":"ucsfvgbxj855"},{"lat":54.3684,"lng":39.2756,"address":"2649 Barrows Overpass","geohash":"ucevm9rwgu3f"},{"lat":54.9227,"lng":41.3522,"address":"2674 Zieme Trace","geohash":"ucv2kyrgbj75"},{"lat":55.3122217,"lng":37.52942231,"address":"962 Wuckert Port","geohash":"ucfdwj214cmw"},{"lat":53.9299,"lng":40.042,"address":"2474 Ivah Villages","geohash":"ucs6z1tsqnp0"},{"lat":55.0932,"lng":36.6178,"address":"133 Zola Fords","geohash":"ucf13m2m0sfe"},{"lat":55.0062,"lng":36.4612,"address":"0014 Gregory Junction","geohash":"uccbvtw4rdc5"},{"lat":53.25348132,"lng":34.34920191,"address":"2420 Bartoletti Keys","geohash":"uc2qvws242mm"},{"lat":54.7438,"lng":35.2222,"address":"12834 Franecki Cove","geohash":"uc9p3tb18xzz"},{"lat":54.0796,"lng":34.3058,"address":"407 Karen Gardens","geohash":"uc87ssusx04e"},{"lat":55.2077,"lng":36.4847,"address":"064 Jaron Radial","geohash":"uccfn4r25jhn"},{"lat":54.4679,"lng":36.0408,"address":"1699 Amara Walks","geohash":"uc9tu5s4e82r"},{"lat":53.7464,"lng":34.7339,"address":"71715 Stanton Coves","geohash":"uc89y2hrqx1h"},{"lat":54.0978,"lng":35.3409,"address":"419 Emil Points","geohash":"uc95u0nqw8v4"},{"lat":54.6928,"lng":36.0216,"address":"718 Damien Glen","geohash":"uc9x5sw0shgs"},{"lat":54.0386,"lng":35.7601,"address":"42047 Kiarra Rue","geohash":"uc97mtrtwtpj"},{"lat":55.0313,"lng":36.7491,"address":"1117 Sanford Road","geohash":"ucf1h4pus1g5"},{"lat":54.0904,"lng":35.3442,"address":"9929 Zoila Meadows","geohash":"uc95sqbg7t3s"},{"lat":54.9651,"lng":35.8731,"address":"78036 Arlo Mills","geohash":"ucc88q1fzv60"},{"lat":55.1908,"lng":36.6016,"address":"021 Strosin Crossroad","geohash":"ucf1bzhmxng1"},{"lat":54.52045435,"lng":37.04504381,"address":"911 Reilly Landing","geohash":"ucdq4vpksj6d"},{"lat":55.38306844,"lng":37.53647769,"address":"764 Hansen Drive","geohash":"ucfen4jjz24r"},{"lat":55.67084875,"lng":37.95432114,"address":"0908 Mraz Causeway","geohash":"ucfuxwt6py3h"},{"lat":53.9244,"lng":35.1127,"address":"467 Ellsworth Overpass","geohash":"uc8fz08k3hwz"},{"lat":54.7209,"lng":37.1775,"address":"6670 Lehner Junction","geohash":"ucdrmcxu6e15"},{"lat":53.8642,"lng":34.4354,"address":"1260 Morissette Flat","geohash":"uc86rtejdyxk"},{"lat":53.4675,"lng":35.0879,"address":"18308 Andre Avenue","geohash":"uc8bnmqnz26s"},{"lat":55.011,"lng":36.472,"address":"951 Halvorson Brook","geohash":"uccbvyqn71wm"},{"lat":54.3177,"lng":35.2844,"address":"9867 Schiller Fords","geohash":"uc9j4bjrd15t"},{"lat":55.1984,"lng":36.4925,"address":"7737 Boyer Plains","geohash":"uccfn2t1bzs1"},{"lat":54.496,"lng":37.0617,"address":"7657 Omari Mews","geohash":"ucdq52ew0nwq"},{"lat":54.0240248,"lng":37.4977761,"address":"59121 Kenneth Falls","geohash":"ucdem6c0c80k"},{"lat":54.0728,"lng":38.4784,"address":"18785 Marielle Station","geohash":"uce7eeehgsw8"},{"lat":54.5151,"lng":37.0471,"address":"07845 Veda Village","geohash":"ucdq5h0v7zpy"},{"lat":53.9306,"lng":36.6905,"address":"8755 Kip Trafficway","geohash":"ucd4fcv0w8e8"},{"lat":54.0797,"lng":38.4697,"address":"483 Morissette Roads","geohash":"uce7ekuv0fz2"},{"lat":54.045,"lng":37.51,"address":"50955 Casper Course","geohash":"ucdemw9fyq5n"},{"lat":53.9936,"lng":38.0919,"address":"0371 Murphy Valleys","geohash":"uce54v1xt8e3"},{"lat":53.9499,"lng":37.7117,"address":"8492 Little Rapid","geohash":"ucdffjkbfq39"},{"lat":54.088,"lng":37.9943,"address":"508 Rudy Lake","geohash":"uce58w6t7mgr"},{"lat":53.7791,"lng":38.1309,"address":"09607 Talia Grove","geohash":"uce1gwnjfqgg"},{"lat":53.7852,"lng":38.1257,"address":"1842 Beatty Valleys","geohash":"uce1gx633pyr"},{"lat":54.1591,"lng":36.9447,"address":"69755 Schamberger Station","geohash":"ucdk0eq79guz"},{"lat":53.5571,"lng":38.0107,"address":"57824 Friedrich Passage","geohash":"uce08vy89x01"},{"lat":53.9706,"lng":38.5391,"address":"69291 Manuela Divide","geohash":"uce7hcp3d15c"},{"lat":53.7027,"lng":37.2867,"address":"414 Mosciski Tunnel","geohash":"ucd982r2ghfe"},{"lat":53.9631,"lng":38.2167,"address":"34181 Deion Cliffs","geohash":"uce4vxstcduy"},{"lat":53.9693,"lng":38.332,"address":"588 Ignatius Shore","geohash":"uce702b9bqdy"},{"lat":53.9445,"lng":37.7048,"address":"72052 Witting Burgs","geohash":"ucdfcurc3x8s"},{"lat":53.4545,"lng":36.9224,"address":"90736 Rosalinda Path","geohash":"ucd205n5430b"},{"lat":53.9992,"lng":37.8154,"address":"03462 Marty Grove","geohash":"ucdghw224smz"},{"lat":54.1046,"lng":37.1108,"address":"41009 Romaguera Burg","geohash":"ucd7u3rq0k6n"},{"lat":53.7685,"lng":38.1204,"address":"4903 Einar Mall","geohash":"uce1gkq2jwy7"},{"lat":54.0366,"lng":37.5004,"address":"8337 Boyer Crest","geohash":"ucdemm4fn8kf"},{"lat":53.9415,"lng":37.1551,"address":"52300 Velma Fall","geohash":"ucd6v7z8086t"},{"lat":56.0857,"lng":37.9275,"address":"2047 Lehner Dam","geohash":"ucfzp41fyu3b"},{"lat":56.713,"lng":36.781,"address":"2418 Stroman Gateway","geohash":"uf44sur15mmq"},{"lat":57.2389,"lng":37.8379,"address":"68198 Monahan Land","geohash":"uf4vth08ybr4"},{"lat":56.873,"lng":37.3483,"address":"75887 August Lights","geohash":"uf4e9ckjnrwg"},{"lat":55.621,"lng":40.6799,"address":"24800 Eusebio Parkway","geohash":"ucuumtqpy3gu"},{"lat":55.9896,"lng":40.0111,"address":"132 Considine Road","geohash":"ucuqw2x5n1yt"},{"lat":55.9517,"lng":40.8778,"address":"9793 Flatley Ferry","geohash":"ucvn61wq3bbg"},{"lat":55.6134,"lng":40.6874,"address":"84733 Bernhard Route","geohash":"ucuumu5et1hm"},{"lat":56.8909,"lng":37.3639,"address":"954 Karson Tunnel","geohash":"uf4edhxt9brj"},{"lat":53.8107,"lng":36.1295,"address":"2634 Darian Junction","geohash":"uc9dn5uwn3eb"},{"lat":54.9493,"lng":31.0917,"address":"400 Schultz Fort","geohash":"u9y0ee0qc5gy"},{"lat":54.5807,"lng":33.1905,"address":"092 Tillman Walks","geohash":"u9xwe20edeyt"},{"lat":54.7335,"lng":37.4011,"address":"0483 Bradtke Course","geohash":"ucdx75ftszcm"},{"lat":57.249,"lng":37.8214,"address":"81753 Metz Pass","geohash":"uf4vstuew7pg"},{"lat":56.2663,"lng":34.3324,"address":"21770 Hosea Way","geohash":"uf02j6bnfysc"},{"lat":56.849,"lng":37.3679,"address":"480 Sporer Expressway","geohash":"uf4e6m43rjty"},{"lat":55.97,"lng":37.7928,"address":"30667 Fausto Drives","geohash":"ucfy7vpbuh4n"},{"lat":56.1263,"lng":38.1377,"address":"3926 Ryan Pine","geohash":"ucgp7c7p2udk"},{"lat":55.0535,"lng":32.7225,"address":"94800 Waters Islands","geohash":"u9z30w5vcs0r"},{"lat":55.4562,"lng":40.6081,"address":"332 Hickle Lights","geohash":"ucugkp3zv2fn"},{"lat":55.989,"lng":40.0179,"address":"320 Zboncak Fort","geohash":"ucuqw8kpsdhf"},{"lat":55.6137,"lng":40.645,"address":"9403 Monserrate Extensions","geohash":"ucuukuhv31hd"},{"lat":55.9101,"lng":39.1871,"address":"6549 Krista Forge","geohash":"ucgy5dp5vw59"},{"lat":55.9177,"lng":39.1766,"address":"08826 Blanca Island","geohash":"ucgy57x80yy1"},{"lat":55.9515,"lng":39.2369,"address":"553 Estell Place","geohash":"ucgykcemn594"},{"lat":56.2677,"lng":43.872,"address":"373 Lewis Dam","geohash":"ufp0n74x5ew0"},{"lat":56.2624,"lng":43.8833,"address":"6983 Wolf Locks","geohash":"ufp0nd6b5p80"},{"lat":56.2631,"lng":43.8863,"address":"4538 Howell Valley","geohash":"ufp0ndmh2fj0"},{"lat":55.6589,"lng":40.5672,"address":"59621 Vandervort Courts","geohash":"ucuuehkhs6bz"},{"lat":55.9878,"lng":40.0223,"address":"6654 Gleason Shores","geohash":"ucuqw8r2e4mu"},{"lat":55.6158,"lng":40.6677,"address":"3198 Beahan Islands","geohash":"ucuumkt3d0dc"},{"lat":53.7292,"lng":41.0017,"address":"662 Waelchi Cape","geohash":"uct1tj0e2bg6"},{"lat":53.12093,"lng":34.98006,"address":"6485 Domenico Ways","geohash":"uc2y5yrey7p4"},{"lat":54.2254,"lng":38.8931,"address":"7025 Hailee Village","geohash":"ucesmp3jfgjq"},{"lat":53.7891,"lng":40.484,"address":"95392 Bogan Mission","geohash":"ucsf10p81wfr"},{"lat":54.356,"lng":41.9156,"address":"7098 Franecki Field","geohash":"uctv1z4n8kb9"},{"lat":54.0397,"lng":39.7391,"address":"064 Boyer Valley","geohash":"ucs72m9hh4hw"},{"lat":54.3489,"lng":41.8989,"address":"825 Esther Keys","geohash":"uctv1mvv71k0"},{"lat":54.3451,"lng":41.9242,"address":"70715 Berge Port","geohash":"uctv4j0r0svk"},{"lat":53.8203,"lng":39.5493,"address":"88832 Pouros Walks","geohash":"ucs45vwvvrp6"},{"lat":53.7076,"lng":40.1202,"address":"544 Wolff Key","geohash":"ucs98cntkqm3"},{"lat":54.7253,"lng":39.5003,"address":"4648 Bashirian Circle","geohash":"ucsp6f7jzxq6"},{"lat":54.123,"lng":39.5995,"address":"9112 Hermann Landing","geohash":"ucs5vhg3r4rq"},{"lat":56.3617,"lng":43.8544,"address":"8641 Viviane Wells","geohash":"ufp0tumf9w6s"},{"lat":54.1018,"lng":35.3405,"address":"04453 Keon Way","geohash":"uc95u0yjv66z"},{"lat":54.3119,"lng":34.5277,"address":"146 Brakus Spurs","geohash":"uc8scxnm9xzp"},{"lat":55.1434,"lng":36.6306,"address":"8825 Myriam Gateway","geohash":"ucf19w99dfg1"},{"lat":54.6769,"lng":35.9336,"address":"5494 O'Hara Spurs","geohash":"uc9x19wh18fh"},{"lat":53.9851,"lng":37.6649,"address":"551 Zaria Fields","geohash":"ucdg15dwpb11"},{"lat":54.4696,"lng":37.3392,"address":"145 Reichel Pines","geohash":"ucdtcevs6mmk"},{"lat":54.3499,"lng":38.2682,"address":"60968 Schinner Wall","geohash":"ucejny451ewn"},{"lat":54.2654,"lng":37.4945,"address":"1221 Lolita Village","geohash":"ucdstnwwv5tx"},{"lat":54.3466,"lng":38.2462,"address":"040 Kaylin Burg","geohash":"ucejnm6pch98"},{"lat":54.4773,"lng":37.6947,"address":"58360 Minerva Station","geohash":"ucdvcv23q0v8"},{"lat":54.0206,"lng":38.0529,"address":"8937 Marks Freeway","geohash":"uce53fjkbcdy"},{"lat":53.9793,"lng":38.5334,"address":"4298 Bogisich View","geohash":"uce7hfehjqcd"},{"lat":54.2448,"lng":37.564,"address":"54786 Leanna Motorway","geohash":"ucdswfcqbess"},{"lat":53.41708,"lng":34.37093,"address":"5779 Mya Village","geohash":"uc2ryhk1h9qv"},{"lat":44.8032,"lng":44.1546,"address":"06150 Israel Falls","geohash":"szzquu0mscb4"},{"lat":54.8089,"lng":32.0262,"address":"2925 Spinka Drive","geohash":"u9wzbc8ubx3x"},{"lat":44.75,"lng":44.2026,"address":"359 Rowe Stream","geohash":"szzqtf7rehx7"},{"lat":44.1285,"lng":43.4496,"address":"470 Ferry Crossing","geohash":"szygh9r51h9u"},{"lat":43.9336,"lng":42.7266,"address":"60878 Watsica Summit","geohash":"szy3umbecbwh"},{"lat":44.229,"lng":43.3479,"address":"7819 Charlie Oval","geohash":"szygd7sux70v"},{"lat":44.0383,"lng":42.8444,"address":"945 Candice Estate","geohash":"szy6wbymdyhh"},{"lat":44.0522,"lng":42.8896,"address":"10508 Alberta Lock","geohash":"szy6xgrq8j78"},{"lat":44.031,"lng":43.1247,"address":"51098 Bednar Loaf","geohash":"szydmrd7nm6c"},{"lat":44.1096,"lng":43.0869,"address":"8661 Quitzon Extension","geohash":"szydumyvj93j"},{"lat":44.0277,"lng":42.8771,"address":"255 Torphy Spurs","geohash":"szy6rwypuy5h"},{"lat":54.55909374,"lng":36.12432202,"address":"80954 Monique Bridge","geohash":"uc9wqh0vv8nz"},{"lat":43.9746,"lng":43.6229,"address":"36016 West Falls","geohash":"szz40tm4x5xf"},{"lat":44.1147,"lng":43.4136,"address":"88944 Shany Glen","geohash":"szyfgyuff0n7"},{"lat":52.9507,"lng":33.4567,"address":"34303 Granville Centers","geohash":"u9rv1r6kjtgs"},{"lat":55.5052,"lng":37.579,"address":"541 Pfeffer Stream","geohash":"ucfez0kjnpjq"},{"lat":56.8087,"lng":35.9146,"address":"4229 Schuppe Course","geohash":"uf1e1m8nwv4x"},{"lat":54.621765,"lng":39.785542,"address":"51396 Smith Walk","geohash":"ucsq9rdfy6fr"},{"lat":59.4367,"lng":28.8257,"address":"4351 Tremblay Spur","geohash":"uds6pun5z7zv"},{"lat":56.3173,"lng":44.052,"address":"069 Cronin Harbor","geohash":"ufp26km8jcxu"},{"lat":55.7441,"lng":37.866,"address":"818 Reta Burg","geohash":"ucfvjevhvv2h"},{"lat":45.0215,"lng":39.0149,"address":"58402 Russel Heights","geohash":"ub58pgcv1pcu"},{"lat":56.7667,"lng":60.554,"address":"05879 Hettinger Shore","geohash":"v654cyn1frz5"},{"lat":56.7972,"lng":60.5821,"address":"9745 Cathryn Glens","geohash":"v6554ede9jrz"},{"lat":56.8179,"lng":60.5624,"address":"2170 Hettinger Extensions","geohash":"v6554pkhq0nx"},{"lat":56.7614,"lng":60.5973,"address":"241 Arthur Course","geohash":"v654fvje57vg"},{"lat":56.7551,"lng":60.7041,"address":"86165 Conner Way","geohash":"v654v7gqkj3w"},{"lat":56.8343,"lng":60.5447,"address":"20425 Baumbach Pass","geohash":"v6553dr7cc2m"},{"lat":56.7919,"lng":60.5117,"address":"215 Reilly Isle","geohash":"v6550fxkbc3z"},{"lat":45.06168246,"lng":38.96416936,"address":"346 Blanda Ville","geohash":"ub58qehz6fqq"},{"lat":55.28404969,"lng":39.55056877,"address":"719 Reynold Inlet","geohash":"ucu4ebpugjc9"},